name,lat,long
"TK, SD, SMP GKPI Rawamangun",-6.1997558,106.8919112
Yayasan Darul Marfu',-6.2590186,106.7895671
SMK Ristek Hasanudin,-6.1211131,106.9171535
SMK Pelayaran Bimasakti,-6.2256423,106.8768763
SMK Multimedi Nusantara,-6.2257363,106.8767931
RA-MI-MTS Darul Ulum,-6.1980056,106.7824638
TK-SD Elo 1,-6.1527553,106.8093999
Midiatama Academy,-6.1919484,106.7452699
SD Bendungan Hilir,-6.2135186,106.8114337
SDIT Asy-Syafi'i,-6.334808,106.8511149
SDIT Harapan Ummat,-6.2061134,106.8506481
SMK Farmasi IKIFA,-6.2158871,106.9208819
SMK Malaka,-6.2215287,106.9394324
KB - TK - SD Agape Kudus,-6.1346877,106.7062166
KB - TK - SD Dharma Surya,-6.1345091,106.7052993
TK - SD Syalom,-6.1578635,106.8090512
Sekolah Kristen Calvin SD-SMP-SMA,-6.152846,106.8429744
RA-MI Al-Khairiyyah MJ,-6.3267039,106.8591468
SLB Kembar Karya Pembangunan II,-6.233512,106.9384906
MI Nurul Ikhwan,-6.1200825,106.8673329
SD Negeri Lubang Buaya 05 Pagi,-6.2885386,106.8999365
SD Harapan Kasih,-6.1804742,106.7829761
SMA Buah Hati,-6.3443858,106.8849289
SMK Bina Nusa Mandiri,-6.3282,106.8806082
"SMP - SMA Cengkareng 1, SMK Cengkareng 2 Jakarta",-6.1343645,106.7380087
SMPN 244 Terbuka,-6.0992505,106.9617231
SMP 266,-6.0990595,106.9616644
SMK Bintang Nusantara,-6.0983334,106.9617433
"SD, SMP Al Humaid",-6.2347218,106.8972323
Heritage School,-6.2220353,106.7831684
MA Nurul Jalal,-6.1220063,106.8813283
SD Juara Jakarta Utara I,-6.1258717,106.8919201
SD Islam Terpadu Al - Mu'min,-6.1753382,106.9085788
Montessori Gading Permata School,-6.1168147,106.770876
PKBM Dorkas,-6.1349004,106.8298759
Sekolah Menengah Kejuruan Dradjat (SKMD),-6.1180644,106.9582471
Yayasan Ayah Bunda Cintaku,-6.3116282,106.8173314
Penabur 6,-6.1150368,106.7748375
"SMP, SMK, SMA, STM DHARMA PUTRA",-6.1228544,106.8861926
Springfield International School PB3,-6.166528,106.7466761
Madrasah Ibtidaiyah Al Furqon,-6.1454378,106.7304884
Kristen Yusuf High School,-6.1414119,106.7948013
SD Negeri Kramat 08/09,-6.1876557,106.8472263
SMP Muhammadiyah 2 Jakarta,-6.1614627,106.8426765
MAN 3 JAKARTA PUSAT,-6.1846038,106.8727636
SD Muhammadiyah Al Bayyinah,-6.3555585,106.8088279
SMK & SMP Tanjung,-6.1615113,106.7962306
SMK Widya Patria 2,-6.213384,106.7252087
Yayasan Perguruan KRIS,-6.1892664,106.8312027
SMA Islam PB Soedirman,-6.3147745,106.8621984
Madrasah Manaratul Islam,-6.2671156,106.7936541
SMK Remaja Pluit,-6.12468,106.7909796
Perguruan Islam Al Islamiyah,-6.2429865,106.8364049
SD Kristen Nasional Anglo,-6.1865798,106.8578365
SD Kristen Nasional Anglo,-6.1866308,106.8730216
SDN Klender 03 Pagi,-6.2189798,106.9240758
UEC Education - CITOS Jakarta Office,-6.2914173,106.7993621
SDN Gandaria Utara 08 Pagi,-6.2578052,106.7880161
LKP Salon Dewi,-6.1573088,106.7007994
SMA Negeri 96 Jakarta,-6.1466837,106.7398435
Sekolah Kristen BPK PENABUR Jakarta - TKK 1 - Samanhudi,-6.159993,106.8345797
Sekolah Kristen BPK PENABUR Jakarta - SDK 1 - Samanhudi,-6.1599287,106.8345949
SD Negeri Karet 04 dan 05 Pagi,-6.2158666,106.8251453
Yayasan Mubasysyirin Setiabudi,-6.2154729,106.8262738
SMK Negeri 27 Jakarta,-6.166210714873503,106.83572380868762
MI At Taqwa 20,-6.149686181141487,106.97161305375494
SD Negeri Utan Kayu Selatan 11 Pagi,-6.2074047306614215,106.87166940126575
Yayasan Rumah Pendidikan Islam,-6.227962249218227,106.83488858914373
SD Umum,-6.183996431760174,106.85567361233015
SD Negeri Tanah Tinggi 01 Pagi,-6.1766191244589255,106.84654904601402
SD Negeri Rawa Bunga 11 dan 12,-6.221608898976447,106.87144565942464
SMA Tarakanita 1 & SMK Tarakanita,-6.245867040872132,106.81229925960758
SMP Negeri 149 Jakarta,-6.229818328240601,106.88210448449398
SMA Negeri 100 Jakarta,-6.229358423854806,106.88232643866493
SLB Pangudi Luhur,-6.187717315039343,106.75497694108957
SD Negeri Menteng 01 Jakarta,-6.1986995589679985,106.82906142875707
SD dan SMP Swasta YWKA I,-6.217773004728847,106.8519384226463
SD Muhammadiyah,-6.234598951334005,106.85358762788658
SD Negeri Manggarai 1 Pagi/02 petang,-6.212904193065134,106.8561455625307
SD Negeri Kebon Baru 9 Pagi,-6.232524085762603,106.85887763984101
SMK Karya Guna,-6.210637160018257,106.85169272761338
SD SMP PGRI,-6.230253923558227,106.8555182704432
SD Negeri Karet 04 dan 05 Pagi,-6.215898577251815,106.82513659095659
"SD Negeri Cakung Barat 06, 07 Pagi dan 11, 12 Petang",-6.19163542401557,106.94277958093839
Sekolah Paket 1,-6.212635499652421,106.81531370281562
SD Tarakanita 5,-6.194210526645626,106.88908452901312
SD-SMP-SMA Santo Yoseph,-6.181521504606865,106.96974398873802
SD Bhakti (YKKP),-6.191292142244349,106.78347435629952
"SD, SMP, SMA Don Bosco",-6.17444750117661,106.88145329946454
MTs-MI-TK Islam Ar-Rahmah,-6.346112356811691,106.885002334385
SD-SMP Harapan Bunda,-6.195096158852296,106.94939310909291
"Perkumpulan Strada - KB, TK, SD, SMP",-6.2802157613325065,106.83366109537546
SD Negeri 01 Pagi Kebon Manggis,-6.210942435294424,106.85804702354388
Perkumpulan Sekolah Kristen Djakarta,-6.211730176580898,106.85890647885066
SD Negeri Kebon Manggis 08 Pagi,-6.204994093274867,106.8567674486293
SMK Negeri 24 Jakarta,-6.321675883816775,106.89979912937753
SD Negeri Tanjung Barat 07,-6.3063747894706985,106.8435936653619
Sekolah Citra Kasih,-6.135726976419949,106.70177643043723
Al Ihsan School,-6.198022687892162,106.72954848726226
SD Negeri Menteng Atas 11,-6.21626913641017,106.84122952099702
SMK Budi Murni 1 dan 3,-6.23108657177477,106.91070965761595
SMP SMA Katolik Abdi Siswa,-6.181552524202885,106.78020992654717
"SD Negeri Serdang 01 03 Pagi, 04 Petang",-6.161312833513169,106.8634076486172
BPS & K,-6.233362519019435,106.93879468857686
"MI, SDI Al Khairiyah",-6.11528600602359,106.91019324817832
SD Negeri Kalisari 02,-6.333022767664001,106.84646108150793
SD Negeri Tanjung Duren Selatan 05 Pagi,-6.181220527470712,106.7856008160617
"SMP, SMA Tanjung Priok",-6.114756171774234,106.91116468440714
SDN Pondok Bambu 02 Pagi,-6.233586876518491,106.89688525815096
SMP Negeri 161 Jakarta,-6.2465394239202245,106.7731074729302
SMP Negeri 201 Jakarta,-6.127111129371437,106.73448493899754
SD Kwitang 6 PSKD,-6.241601713547687,106.79575125509129
SMK Kartika X-2,-6.252476691116317,106.75592636857186
SD Negeri Grogol Utara 01 Pagi,-6.218120997658443,106.79394702252007
SMP - SMA - SMK 1 Cengkareng Jakarta,-6.142349672388181,106.71793473064703
MI Negeri 7 Cengkareng,-6.145619275576209,106.73609927969224
SMK Negeri 33 Jakarta,-6.167203916295377,106.91271795890637
SMA Negeri 69 Jakarta,-5.747706427608871,106.61374925760965
SMP Negeri 231 Jakarta,-6.125753343331182,106.92463268298494
SD Tunas Keluarga Mulia 1 (Strada),-6.110891427505089,106.9224784106017
TK - SD - SMP - SMA Methodist,-6.1356465848824255,106.79043108812483
TK-SD Tunas Karya,-6.1548383403216675,106.87599091840842
SMP Negeri 204 Jakarta,-6.139805291351139,106.70138708253188
Highscope Indonesia,-6.293589526515744,106.80423240052892
MTs-MA Raudhatul Jannatinna'im,-6.132359486977304,106.8365534138601
SD El Shaddai Pelita Bangsa School,-6.117766754491722,106.70296890405831
Labschool Rawamangun,-6.194092448755559,106.8805583009955
SMA Negeri 39 Jakarta,-6.321410534102827,106.8499105825761
SD Negeri Tengah 07 Pagi,-6.298988037565156,106.86838064451648
SMP Negeri 12 Jakarta,-6.249272256045194,106.80315731055039
SMP Negeri 91 Jakarta,-6.351591999544324,106.86558989029888
SMP Negeri 179 Jakarta,-6.331225568729043,106.85215484302482
Yayasan Pendidikan Ignatius Slamet Riyadi (TK-SD-SMP-SMA),-6.316948649804777,106.86257201377673
SMK Paskita Global,-6.322693049883044,106.86273666829902
SD Negeri Pekayon 09 Pagi-14 Petang,-6.341920719786094,106.86096531418242
SD Negeri Pekayon 10 Pagi,-6.341317721748242,106.8610145360678
SMP Negeri 102 Jakarta,-6.3097027037294655,106.85847447384178
SD Negeri Kelapa Dua Wetan 04 Pagi,-6.347489349999999,106.88340719999998
SD Negeri Cijantung 03 Pagi,-6.3194169897370225,106.85150793936471
SD Negeri Baru 03 Pagi,-6.324662481517716,106.85404894874657
SMP Negeri 217 Jakarta,-6.324782536078154,106.8546137926684
SD Negeri Gedong 08 Pagi,-6.301690736204839,106.86658386923622
SD Swasta Kartika VIII,-6.285126818863305,106.86860305424045
SMP Negeri 20,-6.28563892806908,106.86960257884563
SD Negeri Kramatjati 03 Pagi,-6.266599676306604,106.86753966757176
SD Negeri Kramatjati 25 Pagi,-6.282633790134586,106.87281976971578
"SD Negeri Susukan 01,02 Pagi & 13 Petang",-6.310813291403501,106.86547775984963
"SD Negeri Cipinang Melayu 05, 07 & 08 Pagi",-6.245089250051481,106.89838988041903
SMA Negeri 14 Jakarta,-6.2564488399955875,106.86763455446406
Sekolah Sinar Kasih,-6.24816738696283,106.86549423331357
SD Negeri Cipinang Melayu 03 Pagi,-6.251469656707848,106.9178658753696
SMA Negeri 81 Jakarta,-6.251072864881401,106.91833171387314
SD Negeri Baru 08,-6.328024525250571,106.84757404203023
SD Negeri Kalisari 05 Pagi,-6.337085999178134,106.85488915313235
SMA Negeri 88 Jakarta,-6.328016712098403,106.84712079468189
SMK Negeri 22 Jakarta,-6.29480145688751,106.855352678819
SD Negeri Baru 05 Pagi,-6.323790067288985,106.85231415022822
SMP Negeri 223 Jakarta,-6.297761505029576,106.85869181128051
SMK PGRI 28 Jakarta,-6.29479591484289,106.8548355051378
SMA Negeri 28 Jakarta,-6.285838806454494,106.8333655797529
SMP Negeri 155 Jakarta,-6.245897079631581,106.85424368536228
SD Negeri Pejaten Timur 15 Pagi,-6.269621020957915,106.84796254087897
SD Negeri Pekayon 16/17 Pagi,-6.335192150308066,106.86326338542148
SMK Negeri 34 Jakarta,-6.190214749917975,106.84797680843761
SD Negeri Cililutan 02/04,-6.264678337199426,106.86071046455555
SD Negeri Pejaten Barat 12 Pagi,-6.268716773954486,106.84039262399727
SD Negeri Halim Perdanakusuma 01 Pagi,-6.2672003834633445,106.87807100031723
BPK Penabur,-6.169815112814648,106.84070896065923
SD Negeri Cijantung 06 Pagi-09 Petang,-6.327727139857689,106.86215177441663
SMP Negeri 251 Jakarta,-6.327743930480689,106.86152342847926
MI Sa'asatuddarain,-6.343814000642844,106.86317160012733
SD Negeri Cijantung 07 Pagi,-6.327761653921649,106.86188330899455
SD Negeri Mampang Prapatan 03 & 05,-6.241861921465696,106.82932469815898
SMP Negeri 88 Jakarta,-6.193054149338204,106.79508614193554
SMA YAKE,-6.220675023041177,106.86868708101089
Yayasan Perguruan Sumbangsih - SMP & SMA,-6.29015281969993,106.81660636567221
SMA Negeri 103 Jakarta,-6.220688525506423,106.93643997998358
SMK Tadika Puri,-6.222655820799916,106.92925338496912
Jubilee School,-6.149870202656526,106.85875203436852
SMP Negeri 65 Jakarta,-6.134173491407865,106.87367914921329
SMP Negeri 282 Jakarta,-6.136098006682389,106.87098706515667
SMA Negeri 15 Jakarta,-6.1376919748464625,106.86178073489533
SMP Al - Chalidiyah,-6.17556638532895,106.90458824981756
SMK Atlantika Wisata,-6.172324491362973,106.88854395686371
"SD Negeri Pegangsaan Dua 06 / 09, 08",-6.176397879025049,106.911116453325
SD Plus Hang Tuah 6,-6.16278478778986,106.88273662462498
SD Negeri Kelapa Gading Timur 01,-6.176463868564128,106.9063423307459
SMA Negeri 45 Jakarta,-6.174781757209423,106.90572856208122
SMP Negeri 123 Jakarta,-6.175462377426567,106.90588291745301
SD Negeri Kelapa Gading Timur 03,-6.175835644851042,106.9057568578372
SMP Negeri 270 Jakarta,-6.176615239741546,106.91155600175935
SMK Negeri 11 Jakarta,-6.140607479282421,106.81658090975718
SMP Negeri 57 Jakarta,-6.206150676556291,106.832974873694
SD Negeri Petojo Utara 05 07 08 09 10,-6.164406887094681,106.8115430335972
SD Negeri Kebon Baru 3 Pagi,-6.241270789673515,106.86112703651523
SD Negeri Cikoko III,-6.246322528725259,106.85317222263181
SMA Negeri 57 Jakarta,-6.17447178213741,106.75620921568142
SMP Negeri 8 Jakarta,-6.201583876085132,106.8430471843183
SDS Tunas Muda IKKT,-6.197004399556924,106.79222669790708
SD Negeri Malaka Jaya 11 Pagi,-6.221422098388064,106.93426644238257
SMP Negeri 22 Jakarta,-6.138480040007996,106.81613188052428
SD Negeri Mangga Besar 15 Pagi,-6.144820929465946,106.81762838075745
SD Negeri Kelapa Gading Barat 01,-6.160604043145533,106.89135371016053
SD Negeri Kramat Pela 01 Pagi,-6.248378431137279,106.79675779707944
SD Negeri Rawa Badak Selatan 01-02,-6.124889887629209,106.90272518086536
SMP Negeri 151 Jakarta,-6.1251696670483335,106.90288655632145
SMP Negeri 26 Jakarta,-6.214958354109472,106.85984694552597
"SD Negeri Angke 01,04,05,06",-6.145939509465856,106.7986045909039
SMP - SMA Labschool Kebayoran,-6.245158163832835,106.79132058557192
YAPI Al Azhar Rawamangun,-6.195563109414183,106.88400380084823
SD Negeri Angke 03 Pagi,-6.143641868882143,106.7994990191066
SMP Negeri 49 Jakarta,-6.285885898955464,106.87346610372452
Saint Peter's School,-6.165134176461773,106.91488497996
Yayasan Ma'Hadul Islam Mardhotillah (RA-MIT-SMP),-6.34685695327732,106.85641299429923
MTs Al Hidayah,-6.162696847837371,106.75011708177506
"SD Negeri Kalibaru 05 Pagi, 06 Petang, 07 Pagi, 08 Petang",-6.105738150174241,106.92095396896116
SMP Negeri 53 Jakarta,-6.105729466835114,106.92132781969214
SD Negeri Kalibaru 09 Pagi,-6.098465111760235,106.93440473717868
SMK Negeri 36 Jakarta,-6.099580268624198,106.93124099231542
SMP Islam Al Husna,-6.099197891543527,106.93476441605551
SD Negeri Kalibaru 01 Pagi,-6.100538548789419,106.93144694942136
SD Lentera Harapan,-6.126310050632473,106.90201394626853
SDS Pusaka,-6.112245356688711,106.8945358832383
SD Negeri Sunter Agung 013 Pagi,-6.134622304415995,106.85262841223025
SMK DAN AKADEMI PELAYARAN DJADAYAT,-6.119452171704002,106.95735562541282
SDS Muhammadiyah 17,-6.115366610244296,106.87640673574644
SDI Miftahul Ulum,-6.116674550000001,106.87505869999998
SD Negeri Cilincing 08 Pagi,-6.109633028266763,106.93534298957844
SD Negeri Cilincing 02 Pagi,-6.109089140966669,106.93844725681295
SMA Negeri 114 Jakarta,-6.109756431885899,106.9355407568401
"SD, SMK Aisyiyah",-6.11919196868631,106.89553660000051
SMP Negeri 30 Jakarta Utara,-6.115464225509585,106.89394949074206
Singapore International School (SD - SMA),-6.1208295078396295,106.77198289328305
"SD Negeri Kebon Bawang 05,06,09",-6.126235786063963,106.88962441259687
SD Negeri Ancol 03-04,-6.135491673175845,106.81916319172322
SMP Negeri 113 Jakarta,-6.135207901238836,106.81890842372863
SMA Negeri 111 Penjaringan,-6.133733048574036,106.79636662685868
SMP Negeri 21 Penjaringan,-6.1338130342866,106.79598690678861
SD Negeri Sunter Agung 07-08,-6.14722645,106.85963620000001
TK- SD Kristen Ipeka Sunter I,-6.141880021546488,106.86473200358938
MTs Negeri 39 Jakarta,-6.15559245,106.86844599999999
SD Negeri Sunter Jaya 07-08,-6.160046500000001,106.87370419999999
SDIT Al-Islamiyah,-6.159009941816056,106.87373597175116
Saint Caroline School,-6.1570331352485885,106.87166360264041
SD Manba'ul Hikmah,-6.147474026498381,106.92490950406727
SD Negeri Sukapura 02 Pagi,-6.146014524536955,106.92164398171819
SD Negeri Cilincing 09,-6.107799732842684,106.93729163796226
"SMK Cilincing, SD Negeri 05 Pagi, SD Negeri 11 Petang Cilincing",-6.103981569282823,106.93010937899217
SD Negeri Cilincing 01 Pagi,-6.109147849160703,106.93643979803848
SMP Negeri 143 Jakarta,-6.109331718206921,106.93603292030451
MAK 5 Penabur,-6.148074851736379,106.90817631730022
PAUD-SD-SMP-PKBM Mekar Tanjung,-6.122035707770942,106.87750408039744
SMK Sismadi,-6.119276043999893,106.88118891987146
SMK Jaya Jakarta,-6.174123628338003,106.90573842629406
sd dan smp tunas karya,-6.170556971172489,106.90158628275982
Sekolah Tunas Karya 1,-6.171011120957744,106.90174065582951
Tunas Gading School,-6.170824499999999,106.9027678
TK & SD Al Azhar Kelapa Gading,-6.175022043401642,106.89866045611738
Raffles Christian School,-6.175806062519975,106.91343794512197
SD Negeri 2 Pegangsaan Dua,-6.17385805,106.91141640000001
SMK 11 Maret,-6.182079979509005,106.91554161358253
"SD, SMP, SMA DON BOSKO I",-6.165998309874573,106.91327748176514
SMP Negeri 170 Jakarta,-6.178205973900584,106.91349063211322
Singapore International School Kelapa Gading,-6.149243020879371,106.91647750305091
SDIT Al Huda Kelapa Gading,-6.171426681092387,106.91084783665464
Yayasan Nur Attaqwa,-6.150265346702105,106.91666510306199
SD Negeri 07 Lagoa,-6.111217468325857,106.90883322736455
"sma tunas karya,kelapa gading",-6.160950949104497,106.90373762228262
SDN Semper Barat 01 Pg dan SDN 02 Pt,-6.124982072949215,106.92131981256898
SDN Semper Barat 05 Pg dan SDN Semper Barat 06 Pt,-6.115768224580316,106.92280106879112
SMA Negeri 52 Jakarta,-6.12212646654282,106.92390929401137
SD Muhammadiyah 49,-6.163142754739926,106.85648776114397
SMP-SMA Al-Muddatsiriyah,-6.162428165987804,106.85823808087014
"SD Negeri Paseban 01, 02, dan 03",-6.189152710483099,106.8525430521515
SD Negeri Paseban 05,-6.189384097912941,106.85267117197199
SD Negeri Paseban 09/10-11,-6.193825210959718,106.85515836939871
SD Negeri Paseban 07,-6.193460597508036,106.85517170490324
SD Al Hidayah,-6.156980982535998,106.82860670360267
SD Islam Muhamadiyah,-6.157559249533818,106.8298706610812
SD Negeri 01/02,-6.1949036985536985,106.84019774456813
SD Usaha Kemajuan,-6.145325247064993,106.8348803967976
SMK Strada,-6.146400750000009,106.8391155
Muhammadiyah Kemayoran I,-6.161982450000001,106.8428389
SD Negeri Gunung Sahari Selatan 01/02,-6.166225020794229,106.84148115441037
SMP Negeri 93 Jakarta,-6.167127270123191,106.8397061407159
"SD Negeri Kebon Melati 01, 02, dan 03 Pagi",-6.1929005841995295,106.8135663470631
SMP 1945,-6.1985869,106.81325125000001
"Yayasan Muhammadiyah Tanah Abang I (MDM, SDM56, SLTPM6, SMKM 2)",-6.1969790644160545,106.81478427185893
SD Negeri Pasar Baru 11,-6.162711771280589,106.83460955741832
SD Muhammadiyah 21,-6.151554814684723,106.83753027482162
SD Negeri 01 dan 03 Bungur,-6.170816589111703,106.85060902722755
SMP - SMA Muhammadiyah,-6.169891150860379,106.84636310699763
SD Negeri 01 02 Kebon Kelapa,-6.16496966443542,106.82203010676282
SD Negeri Johar Baru 29,-6.185345776711865,106.85661132429026
SMU YP Pancasila,-6.1948057,106.8427628
SD Negeri 01/03,-6.183409184148372,106.83039336191969
SMP Negeri 18 Jakarta,-6.18503417940193,106.83391139137451
Sekolah & Gereja Advent 3,-6.195508096147782,106.83625297600524
SMP Negeri 118 Jakarta,-6.190290516150751,106.87009673208739
SD Negeri SSN Cideng 02 Pagi,-6.1723326499999995,106.8099445
SD Negeri Kartini 01 Pagi,-6.150624181398396,106.83174875241087
SD Kepodang,-6.201116618323436,106.83264404859533
SMA Sunda Kelapa,-6.200995843398493,106.83227551117521
Sekolah Menengah Ilmu Pariwisata Jaya Wisata,-6.20108018829464,106.83250517894847
SMP Paskalis 1,-6.1782974054902535,106.84829015854338
SMP Negeri 77 Jakarta,-6.174755215813779,106.86686644889538
SD Negeri Kramat 05 Pagi,-6.179083504451283,106.84581002758657
SD Negeri Petojo selatan 01,-6.179712353912214,106.81535405524933
SMP Negeri 94 Jakarta,-6.179696520831798,106.8146325876808
SD Negeri Sumur Batu 10 Pagi,-6.158524950000001,106.86720170000001
SD Negeri Sumur Batu 04,-6.1587621660758805,106.86702338806974
SD Negeri Sumur Batu 06,-6.158105491471731,106.86678203541894
SD Negeri Sumur Batu 08,-6.1581379049011025,106.86728066055073
SMP Negeri 10 Jakarta,-6.1634999,106.86460049999998
SMP Negeri 228 Jakarta,-6.160799796394633,106.86584647706877
SD Negeri Johar Baru 10,-6.181547934479272,106.86024440200713
SMK Negeri 14 Jakarta,-6.185869755396993,106.85684723882983
SMP 1908,-6.19497145,106.80707085
"SD Negeri Kebon Kosong 02, 04",-6.15431445,106.85909229999999
SMP Negeri 79 Jakarta,-6.156263478889992,106.85642829832598
SMK Negeri 21 Jakarta,-6.158547885449695,106.8547347569798
SD Negeri Kebon Kosong 01 Pagi,-6.156454210495258,106.85628891052652
SD Negeri Kebon Kosong 09 Pagi,-6.1600068230771425,106.85418234346383
SD Negeri Harapan Mulya 01-02,-6.1672167,106.8557974
SMP Negeri 78 Jakarta,-6.173338899999999,106.8528597
SMK Poncol Kemayoran,-6.16425289801484,106.86920706044404
SMK Swasta Kampung Jawa,-6.1864506,106.85695289999998
SMP Negeri 183 Jakarta,-6.1670134650582655,106.86013859076186
SD Negeri Cempaka Baru 03 Pagi,-6.169416342952624,106.86536611312731
SD Negeri Cempaka Baru 09,-6.165229645603979,106.85802225437111
SMK Negeri 44 Jakarta,-6.167971988369912,106.8636133135421
SMP Negeri 119 Jakarta,-6.16829958793847,106.86344342197671
SMK Muhammadiyah 5,-6.215511209010785,106.8112904145523
SD Negeri 12 Bendungan Hilir,-6.214583868117668,106.81102560669326
"SD Negeri 01, 02, dan 03 Bendungan Hilir",-6.207483513304203,106.8087580607062
SD Islam Al Abrar,-6.206170875101199,106.81020500058773
SD Negeri Mangga Dua Selatan 05 Pagi,-6.146017601452244,106.82731546494078
SD Negeri Serdang 13 Pagi,-6.159183752755025,106.86473496276476
SMP-SMA Pergunas 1,-6.16960605,106.862302
KB-TK-SD-SMP-SMA Kristen Kalam Kudus,-6.142901302386088,106.82124339985012
Pondok Pesantren al-Hamid,-6.350163349725724,106.90092185657848
SMA Negeri 34 Jakarta,-6.313294690524573,106.7949310187329
SMP Negeri 85 Jakarta Selatan,-6.312598731689731,106.79498607878269
SD Negeri Rawa Bunga 01 dan 03 Pagi,-6.216220020598129,106.87201214913905
SD Negeri Pinang Ranti 05 Pagi,-6.287658726005278,106.88195473306662
SD Negeri Pinang Ranti 04 Pagi,-6.287909500000003,106.88150930000003
SMA Negeri 48 Jakarta,-6.287354972156879,106.88282771084711
SMP Negeri 287,-6.2828236341154176,106.88084884975346
Pesantren Tsaqofah Islamiyah,-6.313397002173772,106.88890241007007
SD Negeri Balimester 06,-6.222425117438712,106.86666053889253
SD Kartika VIII-4,-6.20800676058079,106.85578219314664
SD Negeri Kebon Manggis 11 Pagi - 12 Petang,-6.208504373445223,106.85185898309311
SMP Kartika XI-3/VII-3 Jakarta,-6.207068361141794,106.85546922869558
SD Negeri 01 Makasar,-6.275265149723616,106.87627607511686
SD Negeri 02 Makasar,-6.275075144908844,106.8760230936187
SD Negeri Makasar 03 Pagi & 04 Petang,-6.275355686698571,106.87596516409862
SD Negeri Makasar 08 & 09 Pagi,-6.271604862465111,106.87545065363595
Yayasan Pendidikan Syuhada,-6.267419879376874,106.86161184222362
SDSN 01 Cililitan Pagi,-6.268367303678248,106.86355370815197
SD Negeri Cililitan 03 Pagi,-6.26526757264568,106.85475231086943
Ibtidaiyah Al Munir,-6.268928025268231,106.87488075615578
SMP dan SMA Yamas,-6.280304292363236,106.87854019401043
SMP Negeri 222 Jakarta,-6.308938101666786,106.89158507668292
Yayasan Pendidikan PNIEL,-6.3086132256610945,106.89115461777928
SD Negeri Setu 01 Pagi Dan 02 Pagi,-6.3076847738825785,106.91824935531747
SDIT Nurul Hikmah,-6.205693180878481,106.85890190115491
SMK Budi Murni 5,-6.330577111373307,106.89545455401587
"TK,SD,SMP,SMA Katholik Nusa Melati",-6.323448734110055,106.90627512618995
SD Negeri Cipayung 03 Pagi,-6.33398045616726,106.89185317452925
SMA Negeri 64 Jakarta,-6.330631900695365,106.89054000621695
SD Swasta Budi Murni I,-6.331101127843849,106.89516668092858
"SD Negeri Kayu Manis 1,2,3,4",-6.201515859983855,106.86149040548942
Perguruan Muhammadiyah/Aisyah Matraman,-6.208416674962927,106.86306674902713
SD Negeri Jati 06 Jakarta,-6.199999111822019,106.90044986677641
SD Negeri Jati 05 Jakarta,-6.199372187644688,106.89996616614667
MTs Negeri 30 Jakarta,-6.351476025712932,106.89485341073764
"TK, SD, SMP, SMA, SMK Cahaya Sakti",-6.225457302848391,106.86866791044292
"SD-SMP-SMA Kristen ""Berkat""",-6.221208673334355,106.86894208872363
"MTs, MK, SMK Yayasan Al Fathiyah",-6.278833689538377,106.85351483053562
MI Al Abror,-6.282772299420774,106.87747799735602
SD Islam Mambaul Ulum,-6.257174170875571,106.86113934110405
SD 04 & SD 14,-6.2505446,106.86801734999999
SD Negeri Balimester 01,-6.2147985,106.86370790000002
SD Negeri Lubang Buaya 11,-6.293829361048176,106.90075520012832
SMP Negeri 157 Jakarta,-6.294052018092197,106.90150059379434
SMP Negeri 272 Jakarta,-6.2919247097197015,106.90343362661358
Yayasan Minhaju Rosyidin,-6.289930114567812,106.90124553720618
MTS 4 Pondok Ranggon,-6.357574765829603,106.90859810047337
SD Hidayatul Islamiah,-6.3580841,106.9084922
SD N 02 Pagi & SD N 07 Petang,-6.3583066,106.9093759
SD Negeri Pondok Ranggon 03 Pagi Renovasi,-6.359348920561606,106.90812500373156
SD N 04 Pagi & 05 Petang,-6.364851649999999,106.9040131
SMP Negeri 230 Jakarta,-6.35952564876929,106.90850012742268
SD Negeri Malaka Jaya 05 Pagi,-6.221629221320556,106.93546330567993
SMP Negeri 139 Jakarta,-6.221800559393202,106.9335773241547
SMA Negeri 105 Jakarta,-6.331648289386907,106.88429547311726
SMK Bina Medika,-6.331427681651328,106.90217369827162
SD Negeri Balekambang 03 Pagi,-6.283274030442434,106.85177943797554
MTs Negeri 22 Cilangkap,-6.339695750000001,106.89702835
SD Negeri Rawa Terate 01 Pagi dan 02 Petang,-6.187965983131896,106.92360814507676
SMP Yaspia dan SMK Bina Manajemen,-6.190300039825992,106.92301186706008
SD Negeri Pisangan Baru 07,-6.210685835649554,106.87095538553072
SD Negeri Pisangan Baru 01,-6.210498699913089,106.87327276073707
SMA Negeri 53 Jakarta,-6.22092913154148,106.88318043135905
SD Negeri Klender 01 Pagi,-6.215464072137347,106.89745401592012
TK-SD-SMP Sekolah Silaparamita,-6.218067379961338,106.88684361005359
SD Negeri Cipinang Besar Selatan 12 Pagi,-6.2316078682396325,106.8807885376462
SD Negeri Cipinang Besar Selatan 02 Pagi,-6.229878715540084,106.8815592931204
SMA Negeri 12 Jakarta,-6.214566600506173,106.89799216444914
SD Negeri Cipinang Besar Selatan 05/08 pagi,-6.2353213254550095,106.88212196624733
SLB Negeri 07 Jakarta Timur,-6.2324563150484416,106.88282591508818
Jakarta International Korean School,-6.3171798877739755,106.89305455962601
TK Mekar Sari & SDK Santa Anna,-6.310993168809376,106.8897116967436
SD Negeri Kramatjati 01 Pagi,-6.270493651634465,106.86993546750553
SD Negeri Kramatjati 18 Pagi,-6.279039193844223,106.87236492184947
SD Negeri Kramatjati 16,-6.279027108390285,106.87262491953719
Yayasan Santo Markus,-6.26502505,106.86884835
SMP Negeri 150,-6.2723691603860505,106.87023687309568
SD Negeri Pondok Kelapa 10 Pagi,-6.235985600703168,106.93784346897512
SD Negeri Dukuh 05,-6.299074501501716,106.87911340682044
SD Negeri Dukuh 08 Pagi,-6.300989250000002,106.87694519999998
SMK Mahadhika 2 Jakarta,-6.3026953526599145,106.87873325820901
SMP Negeri 263,-6.295262222558874,106.87870998644794
SD Negeri Pisangan Timur 13 Pagi,-6.208842545032369,106.8763923072168
SMPN 44 Atas,-6.207073346210994,106.8833011741303
SMP Negeri 44 Jakarta,-6.2077004720482964,106.88268185910982
SD Negeri Cipinang Melayu 01 Pagi,-6.241681128953694,106.8847993476004
TK SDIT Al Iman,-6.222604880303007,106.88762470544182
SD Negeri Cipinang Muara 14 dan 15 Pagi,-6.220512448229208,106.8938778994034
SD Negeri Cipinang Muara 16 & 17 Pagi,-6.220573581412265,106.89349958513958
SMP Negeri 148 Jakarta,-6.219034370624379,106.8949631189728
SMP Negeri 25 Jakarta,-6.218979670077754,106.89530639634242
SD Negeri Cipinang Muara 06 dan 09 Pagi,-6.222291640996902,106.88759724059229
Yayasan Yusufiyah Lubang Buaya,-6.288603560084437,106.89936470119464
SD Negeri Lubang Buaya 03 Pagi & 15 Petang,-6.297094900000001,106.90186494999999
SD Negeri Lubang Buaya 04 Pagi,-6.291327825722918,106.9065026370939
"SD Negeri 08, 09 Lubang Buaya",-6.2904525261785045,106.90347714494617
SD Negeri 13 Lubang Buaya,-6.290638797481319,106.8916675813235
SMP 30 & SMA 24 PGRI,-6.2953547732857285,106.90196090249886
SMP Negeri 192 Jakarta,-6.297861368471389,106.91066621563746
Yayasan Trisastra,-6.292699183014635,106.9006199657503
"TK/RA, SDIT, SMPIT Nurul Ihsan, SMA Sapta Kharisma, SMK Iptek Jakarta",-6.214875821182014,106.9549561205288
SD Negeri Pulogebang 13,-6.1967911194344705,106.96254257896972
SD Negeri Pulogebang 11,-6.209229377080547,106.94416475194878
SMP Negeri 172 Jakarta,-6.21814432033357,106.95177394547946
SMA Negeri 71 Jakarta,-6.241926584010033,106.9118846693622
SD Negeri Duren Sawit 10 Pagi,-6.223580750000001,106.92012665
"SD Negeri Duren Sawit 05, 07, 09 Pagi",-6.234906613331164,106.9201482479763
SMP Negeri 255 Jakarta,-6.222896974944771,106.9226953278162
SD BPS & K V,-6.225978159997962,106.9344440925047
SD Negeri Jatinegara 10 Pagi,-6.207124862603251,106.90419813408106
SD Negeri Pondok Bambu 06,-6.235096569917388,106.89477505071284
SD Negeri Pondok Bambu 01 Pagi,-6.237515049999999,106.90567385
SD Negeri Pondok Bambu 07 Pagi,-6.238357149999987,106.90773194999998
"SD,SMP,SMK, Perguruan Tinggi Tri Anandra",-6.2254280896024525,106.89920634713746
SMA Negeri 61 Jakarta,-6.238382662777044,106.89626400578602
SD Negeri Pondok Bambu 11,-6.239029195894298,106.8958048768048
SMK Fensensius,-6.190930420830277,106.89383467047031
SD Negeri Jati 03,-6.1909046169612925,106.89426360983568
Yayasan Pendidikan Islam Al Hikmah,-6.191638096344616,106.90084213591396
SMP & SMK Al Washliyah,-6.192293874307365,106.89780470217059
"KB, TK, SD, SMP Tugasku",-6.183268802148576,106.88640824746692
SD Pelita,-6.254580146651719,106.87986955686222
SD Negeri Kebon Pala 07 Dan 09 Pagi,-6.253969682926045,106.87517106999834
SD Negeri Kebon Pala 11 Pagi,-6.257387288999232,106.88189074929461
SD Negeri Kebon Pala 12 Pagi,-6.2573409077961735,106.88151044805328
SD Negeri Kebon Pala 13 Pagi,-6.257560360621248,106.88124103893732
SMP SMK Perdana Kusuma,-6.2498682042715545,106.87971408071895
SMA Negeri 9 Jakarta,-6.2586541769984425,106.88138703592556
Yayasan Pendidikan Bhakti Jakarta,-6.250677456081014,106.87577783388343
SMP Negeri 268 Jakarta,-6.258034728218823,106.88151743930871
SMP Negeri 275,-6.259563119837613,106.87730204158555
SMK Gutama,-6.254029700473004,106.87959988591622
SD Negeri Utan Kayu Selatan 14 Pagi,-6.198751150315155,106.86866474686995
ALfina,-6.212369680416865,106.89991309038862
Global Islamic School,-6.291240024964313,106.8568223500846
SDN 13 Batu Ampar,-6.27979697598171,106.85777448186094
Arabiyah,-6.236659113810803,106.87286134447024
Dewi Sartika,-6.23043902865829,106.87339664351262
SD Kristen 8,-6.244785480975329,106.87412767984148
TK MI MTs Ruhul Ulum,-6.228244207044329,106.8714109230666
SMK Al-Akhyar,-6.182185598660436,106.95899406134181
SD Negeri Pondok Kopi 04 Pagi,-6.223523902977512,106.94668513913024
SD Negeri Pondok Kopi 08,-6.224135219194096,106.94663289319173
SDIT Nurul Islam,-6.23097466033231,106.94330886702868
SD Negeri Gedong 10 Pagi,-6.296913672274472,106.86319321120666
SD Negeri Jati 07 Jakarta,-6.202083557536737,106.89747186760759
SMP-SMA-SMK Widya Manggala,-6.302209873498193,106.87249909114381
SD SMP Islam At Taubah,-6.1747300392139515,106.8828587921144
SMP Negeri 90 Jakarta,-6.199506066457909,106.90679858834797
SD Negeri Cakung Barat 05 Pagi,-6.1810340379348725,106.93965645021935
SD Muhammadiyah 41,-6.187705322104077,106.88641951046162
SLTP-SMA-SMK Bina Dharma,-6.327531515301864,106.88490777473409
SMP Negeri 210 Jakarta,-6.31904547803799,106.88002678397073
SD Negeri Ciracas 11 Pagi,-6.32338336935668,106.88334489880744
SD Negeri Ciracas 15 Pagi,-6.32360349778438,106.88373032326838
SD Negeri Ciracas 03-04 Pagi,-6.323286393450162,106.87739417960216
SD Negeri Bidaracina 01 Pagi,-6.2316282786888095,106.8661701248532
SD Negeri Bidara Cina 03 Pagi,-6.228493376148838,106.86542028034535
SD Negeri Bidara Cina 5 Pagi,-6.238099727542259,106.86424997865063
MTSN 14,-6.257557737778966,106.88850531993072
SD Angkasa X,-6.257859556531201,106.88828735245825
SD Kemala Bhayangkari 5,-6.2077734498798005,106.89476220175365
MTs Negeri 17 Jakarta,-6.328381741028562,106.85407497098754
MTS Negeri 33 Jakarta,-6.318154138443758,106.85812313758042
Yayasan Pendidikan Budi Daya Kasih (TKLB-SDLB-SMPLB-SMALB),-6.319155272880005,106.86382183566833
TK-SD-SMP Putra I,-6.239480678772719,106.88165154067752
SD-SMP-SMK Yanindo Jakarta,-6.1200592283104625,106.86699609901537
Tutor Time Internasional Preschool,-6.113064499999999,106.7922547
SMP Katolik Diakonia,-6.111970550000001,106.78944420000002
Madrasah Ibtidaiyah Nurul Anwar,-6.145617177043725,106.81056553022417
SDN/SMP salatiga,-6.152285550000001,106.78777294999999
SD Tanjung,-6.161397500000001,106.79608515000002
Yayasan Spring Field School- TK & SD,-6.174488476003603,106.74400379236069
SMP - SMK (SMEA) Islam Tomang Raya,-6.178974579523617,106.79880859589909
SD Negeri Jati Pulo 03 & 04 Pagi,-6.179743451166617,106.80857974505392
SD Negeri Jati Pulo 05-06 Pagi,-6.17660516733643,106.80407540538884
SD Negeri Jati Pulo 01 Pagi,-6.176861009391545,106.80440989111517
SMP Kartini,-6.148719846018845,106.8235989686578
SD Negeri Maphar 01 Pagi,-6.1566932,106.81950420000001
SD Negeri Grogol 11,-6.1637621763056485,106.79778211869477
Yayasan Perguruan Sumbangsih,-6.164202560447911,106.79719172577063
"Central School (TK, SD, SMP, SMU)",-6.177750991240381,106.74647732385004
Pondok Pesantren Al Washilah,-6.16824596844616,106.75112928328161
Yayasan Budi Pekerti Luhur TK-SMA,-6.176730145651856,106.74662396686941
"SD Negeri Kembangan Utara 09,10 Pagi, 11,12 Petang",-6.1592924515201535,106.74861317470717
MI Chairiyah Mansuriah,-6.1456588743086815,106.8057998520779
SD Laksa Bhakti,-6.143440669447581,106.80531956394593
SD Tunas Pembangunan,-6.146832962897283,106.80476882472534
SD Negeri Tanah Sereal 01 Pagi & 02 Petang,-6.150227314555649,106.81175881009996
SD Negeri Kemanggisan 14 pagi & 15 Pagi,-6.192574703632086,106.78612967884507
SD Negeri Kemanggisan 17/18,-6.192243799935013,106.78399777393372
TK-SD-SMP Budi Bahasa,-6.156758596209738,106.79956107678272
SD-SMP MDT PKBM Kali Baru,-6.1579890992183515,106.797683960868
SD Negeri Kali Anyar 01 Pagi 02 Petang,-6.155713223145427,106.79876012707949
SD Negeri Mangga Besar 11 Pagi,-6.143443489274458,106.81918342256317
Yayasan Pendidikan Sentosa Abadi,-6.1436823364203095,106.81999451879784
SLTP MA MAK Ribathiyah Ponpes Asshiddiqiyah Pusat,-6.174563723893238,106.76640320289131
SMP - SMK Eka Sakti,-6.152607532589885,106.74645158178235
SD Negeri Tanah Sereal 03 Pagi-04 Petang,-6.154599803914965,106.80986923981287
SD Negeri Petojo Utara 01 Pagi,-6.168455169885145,106.81161653507174
"SD, SMP Sekolah Fajar Sion",-6.138121422303924,106.81803281518931
SD Negeri Pinangsia 06 Pagi,-6.138302599999996,106.81607074999998
SD Negeri Kemanggisan 08 Pagi,-6.195824734800644,106.79467275033612
"SMAN 15, SMKN 04 Muhammadiyah",-6.186742085113685,106.79571487169636
SD Negeri Kota Bambu 01 Pagi,-6.183206464695644,106.80933400257139
SLTP-SMU-SMK Yayasan Josua,-6.185726371271763,106.80746153936481
SMP Negeri 130 Jakarta,-6.183171633563336,106.8090648899306
SMP Negeri 187 Jakarta,-6.171788968528229,106.69732485427623
"SD Negeri Semanan 08 & 12 Pagi, 13 & 14 petang",-6.167831849999997,106.70394755
SMP Negeri 205 Jakarta,-6.170201450666784,106.70735035761776
SMK Negeri 9 Jakarta,-6.13511307598205,106.8047712499099
SMP Negeri 105 Jakarta,-6.1900293909832875,106.7233276984659
SD Kasih Bunda,-6.156149470648513,106.82489709255792
SD Negeri Tamansari 07 dan 08 Pagi,-6.15415551372574,106.82534018939663
SMK Strada 2 Tamansari,-6.156119331929201,106.824491166086
"SD, SMP Melania dan SMK Paramitha 2",-6.155726856533342,106.8250029049135
Sekolah Kristen Makarios,-6.175247815458259,106.74932223125815
"SD, SMP, SMA Sekolah Kemurnian I",-6.1464718,106.81322069999999
"TK, SD, SMP, SMA Sekolah Ricci",-6.143464695224357,106.81222140289081
SMP Negeri 75 Jakarta,-6.198280704735244,106.76599703192866
SD Negeri Kebon Jeruk 8,-6.198235107933692,106.76694429674558
SD Negeri Sukabumi Utara 01,-6.208462719781944,106.77831030528623
SMP AL-Hasanah,-6.205724944087556,106.77642377333558
SD Negeri Tanjung Duren Utara 01 Pagi,-6.171917322232545,106.7849711526474
SD Negeri Tanjung Duren Utara 02-04 Pagi,-6.172544781041601,106.78376998957165
SD Negeri Kamal 03 Pagi & 04 Pagi,-6.105912083429616,106.70067426203036
Sekolah Bukit Sion,-6.20310167607559,106.75114060528935
"Yayasan Tarbiyah Islamiyah Al Alawiyah (Satria)- MI, MTs, SMK Satria",-6.2085697400089455,106.75915387320526
Madrasah Ibtidaiyah,-6.176395610803747,106.75370400918759
SD Negeri 04 Pagi,-6.181995027355302,106.76140960597023
SD - SMP - SMA Patriot Pancasila,-6.107878183024427,106.69960579272546
SD Negeri Duri Kosambi 06 Pagi,-6.176703713027265,106.72324272697186
SD Impres 6,-6.215104851872885,106.75575561194901
Petra National Plus School,-6.220191968484753,106.75069062398637
SMP Negeri 142 Jakarta,-6.219688559140131,106.75790449534149
SMK Islam AA,-6.181508967923425,106.7856212743954
SMP Negeri 101 Jakarta,-6.202876871132043,106.79329734025603
MTs Negeri 11 Jakarta,-6.153476614758365,106.76081386027819
SD Negeri Cengkareng Barat 13 Pagi,-6.129519019229032,106.72295542121105
"SD Negeri Cengkareng Barat 14 Pagi, 20 Petang",-6.128810555312023,106.7243173951406
SD Negeri Cengkareng Barat 16 pagi & 17 Petang,-6.13071822760891,106.72707073601956
SMP Negeri 249 Jakarta,-6.12953153210509,106.72477180255203
SD Negeri Jelambar 08 Pagi,-6.162271043052949,106.78435538448811
"SD Negeri Cengkareng Timur 03 Pagi, 04 Petang",-6.15056682575399,106.73138945849189
SD Negeri Cengkareng Timur 21 Pagi,-6.12405048395956,106.73111059213387
SDN 01/02/03,-6.194624380107871,106.8050326797273
SMP Negeri 271,-6.221295077496331,106.76842335430091
SD-SLTP-SMU Galatia 2,-6.155752273093205,106.77570115276185
Perguruan Tunas Harapan SD-SMP-SMU-SMK,-6.155042208898274,106.77235859904583
SMP Negeri 125 Jakarta,-6.144195893756111,106.71323037450361
Pusat Kegiatan Belajar Mengajar,-5.978598886548683,106.70849651210946
SMAN PLKN 30,-6.184798777754182,106.77335735536187
SMK Negeri 60,-6.1856789334783295,106.77214305580772
SMP Negeri 191,-6.184758405975784,106.77273387433215
Madrasah Ibtidaiyah Al Hikam,-6.211590569604987,106.76816252022137
SD Negeri Kelapa Dua 06,-6.216406623231608,106.76615442658218
SD Negeri Duri Kepa 11 Pagi,-6.186446863586628,106.77540814051999
SMK Dewi Sartika,-6.170743824667676,106.77833064779765
SD Negeri 01 Duri Kepa,-6.186415953765325,106.7756854404384
SMP-SMA Kemurnian II,-6.1684845753128075,106.77903536013828
SMP - SMA Widuri,-6.18362295,106.77158315
Sekolah Dharma Bangsa,-6.167145264318861,106.77871517117546
Tunas Muda School,-6.192091729359849,106.72744104766224
IPEKA Intregrated Cristian School,-6.192360998328379,106.73592888549338
"SD Negeri Pulau Pari 01, SMP Negeri Satu Atap",-5.857892936363991,106.61972071516979
"SD Negeri Meruya Utara 12,13,15",-6.195717746647226,106.75196119035878
SMA Negeri 112,-6.191507745329088,106.75641006219536
SMP Negeri 134 Jakarta,-6.1991507002250446,106.73876198846708
SD Meruya Utara 02 Pagi,-6.199136031854006,106.7414405319753
MTs Negeri 26 Kampus B Pulau Tidung,-5.745114353897644,106.61334337415951
SD Negeri Pulau Harapan 01 Pagi,-5.6531674,106.58022160000002
SMP Negeri Pulau Harapan 260,-5.65344624156464,106.58000187016579
SMP Negeri 43 Jakarta,-6.2405626448893265,106.82634655164958
SD Negeri Pancoran 10 Pagi,-6.247358848357519,106.83576781378655
Madrasah Hidayatul Anam,-6.226632110386313,106.82251341941637
SD Attaufiq,-6.228712485122268,106.82245769864751
SD Negeri 01-02 Kuningan Timur,-6.2305847764249584,106.8230370314185
SMP Attaufiq,-6.229125399999999,106.82246455
SMA Cendrawasih I,-6.269027452542525,106.79686440214857
SMA Pangudi Luhur Jakarta,-6.25395239584638,106.80683155779293
SD Negeri Pengadegan 07,-6.2505425578629294,106.85287876088142
SMP Negeri 154 Jakarta,-6.250817252093832,106.85272558610386
KB/TK/SD Ar Rahman Motik,-6.207478187398555,106.82811426634946
MI Nurun Najah,-6.244287249999999,106.85310749999998
Pondok Pesantren Miftahul Ulum,-6.267011641067238,106.79160587945177
SD Negeri Cilandak Timur 03 Pagi,-6.305830243547959,106.81288210691719
SMK Al Hidayah I,-6.308100971608883,106.81131150973114
SD Negeri 05,-6.264597975511895,106.83854006633985
MI Daarul Muttaqin,-6.292037573653126,106.8270522375945
SD Negeri Jatipadang 01,-6.284296798952465,106.83706317098759
SD Negeri Jatipadang 06,-6.285005120730337,106.83473582859409
SD Negeri Jatipadang 05,-6.2852507394328345,106.83473584120414
SD Pelita Pagi & MI Al Ikhlas Petang,-6.286576368627179,106.82946052187066
SMK Negeri 25 Jakarta,-6.284719120914366,106.83665017701786
SMP IT As Salaam,-6.284910570513453,106.83221639735939
SD Negeri Rawa Barat 09 Pagi,-6.236028352613015,106.80982194455004
SD Negeri Rawa Barat 05 Pagi,-6.23607995,106.8155845
Yayasan Pendidikan Islam Al Azhar,-6.234348725907086,106.80003178910363
SMA Negeri 82 Jakarta,-6.231265108368206,106.79964005684566
SD Negeri Kalibata 01 Pagi & 09 Pagi,-6.263013080509578,106.83647260461834
SDN 01 Mampang Prapatan,-6.244983271867251,106.83517738701036
SLB B/C Nur Abadi,-6.33068755,106.82108314999999
Sekolah Avicena,-6.335627467254041,106.82998021679535
SD Al Barkah,-6.274138666765645,106.80595180169136
MI Al Ihsan,-6.2680426632438015,106.81128348209951
SMP 4 & SMA 4 Perkumpulan Sekolah Kristen Djakarta,-6.247114255464127,106.80104512540593
SMA/SMK Dharma Karya,-6.24709765040318,106.80029890522643
SMK Negeri 6 Jakarta,-6.242739906606194,106.80747164560168
SMP - SMK Purnama,-6.241449348676802,106.80553166509027
SMP Negeri 13 Jakarta,-6.2428545528203845,106.80700964818338
Yayasan Pendidikan Kristen Ora et Labora,-6.247380293865408,106.8003016663592
"SD Negeri Kuningan Barat 01, 02, 03, & 05",-6.236543551669517,106.82090472711884
SDN Pasar Manggis 01 Pagi 02 Petang,-6.2117666295736385,106.84029571939473
SD Negeri Pasar Manggis 03 & 04 Pagi / 05 & 06 Petang,-6.210703666441928,106.84304351329423
"SD, SMK Budi Asih",-6.210221383539532,106.84574083754337
SD Negeri 07 Menteng Dalam,-6.2307929555339365,106.84086542337197
TK SD SMP SMK Al Hikmah,-6.237426950000001,106.75415750000002
Madrasah Ibtidaiyah Negeri 08 Petukangan Selatan,-6.249517798380917,106.7484792448028
SD Negeri 01-02 Petukangan Selatan,-6.243855832926685,106.760237032596
SMA Negeri 90 Jakarta,-6.243288999877075,106.74815702506578
SD Negeri 07 Kalibata Timur,-6.260361240489255,106.84732321651896
SMP Negeri 182 Jakarta,-6.260002702828541,106.84692377265979
SD dan SMP Perguruan Rakyat 2,-6.220534660967342,106.86230539326336
SD Negeri Gandaria Selatan 04 Pagi,-6.265538839581961,106.79095612511748
SD Negeri Gandaria Selatan 03 Pagi,-6.265719610549142,106.79084549822086
SD Negeri Kebayoran Lama Selatan 17 Pagi,-6.253556760982038,106.78355687083096
SDN Kebayoran Lama Selatan 16 Pagi,-6.248975349999995,106.78485259999998
SD Negeri 02 Cipedak,-6.362337145149004,106.80133826783447
SD Negeri 01 Cipedak,-6.362132432328256,106.80121481221292
SDN Menteng Atas 01 dan 02 Pagi,-6.219430270947012,106.84492699405487
SD Negeri Menteng Atas 21 Pagi,-6.22175422854538,106.83777106884521
SMA Negeri 79 Jakarta,-6.222223198615078,106.83800382403616
SMP Negeri 145 Jakarta,-6.221149671676138,106.83756406662727
SD Negeri 01 02 03 Pagi Karet,-6.215808042871782,106.8224127358837
TK Kristen dan SD Kristen 9 Penabur,-6.207368560218629,106.83287571559036
SDN 01 Pagi 06 Petang 08 Pagi 09 Pagi,-6.206539354493243,106.83685178873736
SD Negeri Guntur 03 Pagi,-6.206410112905447,106.83334952601494
TK SD Bakti Mulya 400,-6.275747383152641,106.77723020016172
SMK Kesehatan Sekawan,-6.211720075566785,106.79026622992113
SD Al Azhar 5 dan SMP Al Azhar 4,-6.2109894408568795,106.7910153069858
SD Negeri Kramat Pela 09,-6.244741874813912,106.79072213362714
SD Negeri Tanjung Barat 03 Pagi,-6.308589069581334,106.85100940175889
SD Negeri Tanjung Barat 05 Pagi,-6.305107928803563,106.85121854517274
SD Islam Al - Fakhiriyah,-6.3110877280283,106.84995890252198
SD Negeri Tanjung Barat 01 Pagi,-6.303194690571739,106.84609748372233
SD Negeri Tanjung Barat 09 - 10 Pagi,-6.3002162508960815,106.84684137951584
PSKD 4,-6.243205315038298,106.79599464667503
SD Negeri 03 Cipedak,-6.34937095,106.8098391
SD Negeri 04 Cipedak,-6.349153299999999,106.80993775
SD dan SMP Pelita Hati,-6.220594015856167,106.82081658762611
SD Negeri Karet Kuningan 01 Pagi,-6.216464805071722,106.82169884398846
SD Negeri 03 - 04,-6.2191166373068905,106.82876155059395
SMK Muhammadiyah 15,-6.216357759612547,106.82519102966828
SD Negeri Rawajati 01,-6.260006306164972,106.85159910447568
SD Negeri Rawajati 06,-6.260255839370523,106.8522488606946
SD Negeri Rawajati 05 Pagi,-6.261324945861017,106.85647221234828
SD Negeri Rawajati 03 Pagi,-6.261143166318687,106.85640650680071
SMK Al Hidayah 2,-6.355394655525429,106.82276909957972
Yayasan Triguna 1956 - SMA & SMK,-6.2344798,106.79508875
SD Negeri Gunung 05 Pagi & 06 Petang,-6.230605619319244,106.79664260632183
SMK Negeri 30 Jakarta,-6.23508875,106.7911505
Yayasan Pembinaan Anak Cacat Jakarta (YPAJ),-6.234467713387733,106.7944435598271
SD Negeri Srengseng Sawah 17 Pagi,-6.361344850000001,106.81096015000001
Al Jabr Islamic School,-6.308099377264184,106.8043523289398
SD Negeri Pondok Labu 12 Pagi,-6.3141530440099665,106.80468546108847
"Yayasan Charitas (Playgroup, TK, SD)",-6.304498853444143,106.79838851564173
"Yayasan Tarakanita 3 (KB, TK, SD, SMP)",-6.218186832145953,106.79104495958101
"SD Negeri Grogol Utara 3, 4, 12, 14, dan 15",-6.214854132503815,106.77802126992475
SMP Negeri 185 Jakarta,-6.21270725168284,106.78807126255896
SD Negeri 010 Tebet Timur,-6.239206176347025,106.85494797569602
Komplek Sekolah Muhammdiyah,-6.235164938170477,106.85373882612711
SD Negeri Ragunan 07 Pagi,-6.286161302803911,106.8234980081698
SD Negeri Ragunan 12 Pagi,-6.298822028556667,106.82409377643394
SD Negeri Ragunan 14 Pagi,-6.297970238319229,106.82605396998648
"SD Negeri Tebet Barat 01, 03, dan 07",-6.237315300600395,106.84793396830646
SLB Yayasan Pendidikan Zinia,-6.233033695916193,106.84880628896542
SMA Negeri 26 Jakarta,-6.233559776726969,106.84863637092809
SD Negeri Tebet Barat 05 Pagi,-6.224749545699452,106.84987104268613
Madina Islamic School,-6.225891927318478,106.851299868822
SMA-SMK 17 Agustus 1945,-6.224701430971815,106.85029133296135
SMK Muhamaddiyah 23,-6.240648849335648,106.85098836116416
Yayasan Pembina Pendidikan Adik Irma,-6.2331684252315975,106.84810205421194
SD Negeri Gandaria Utara 08 Pagi,-6.257772699999999,106.78804099999998
SMA Gita Kirtti 3 & SMK Gita Kirtti 1,-6.258958004948425,106.79240779012697
SMP Negeri 212 Jakarta,-6.282679049623009,106.81302361080056
SMP Negeri 56 Jakarta,-6.290320622026794,106.81211428277257
SD Tarakanita 1,-6.247659478859937,106.79441847193043
SMK YPK Jakarta,-6.346821229295658,106.82045856491492
SD Negeri Pela Mampang 03 Pagi,-6.244616433844174,106.81751412392323
SD Negeri Pela Mampang 03 Pagi & SMP Dharma Satria Siang,-6.244257813495806,106.82165173034475
SD Negeri Pejaten Barat 10 Pagi,-6.273359958673577,106.83645805308427
SD Negeri Pejaten Barat 09 Pagi,-6.273677982499632,106.83640775484767
SD Negeri Pejaten Barat 05 Pagi,-6.278905715038436,106.83667926301061
Al Azhar Syifa Budi,-6.2544746350939615,106.81099897136266
MI Darul Ulum,-6.2674018185976,106.82414084436797
MI,-6.257549607463676,106.82290718235208
MI MTS Jamiatul Huda - SMK bina putra,-6.2655195438887334,106.82346637397342
SD Islam MI Ahdi,-6.265402233096603,106.8151878230246
SD Negeri 01 dan 02,-6.27232253579328,106.82026221522521
SDN 05 dan 06,-6.264489957455459,106.82054854212721
SD Negeri Kebagusan 03 Pagi,-6.30733412514687,106.83638203555073
Yayasan Al Ihsan TK s/d SMA,-6.306029972899089,106.83397815147448
MI Al Karimiyah,-6.230813635878208,106.76849118115105
SD Negeri Grogol Selatan 08,-6.23275925,106.78383075
SD Negeri Grogol Selatan 01,-6.229143791881986,106.77823070348424
TK SD Surya Dharma,-6.230200586889032,106.77843867431105
SD Negeri Grogol Selatan 9 Pagi 15 Petang,-6.231247400000001,106.7714463
SD Negeri Grogol Selatan 10 Pagi 16 Petang,-6.231394676337122,106.77116885079646
SMP Negeri 153 Jakarta,-6.232789262084627,106.77160782064692
SMP Negeri 66 Jakarta,-6.232800324771044,106.78329672108933
Binus International School,-6.234085027467497,106.78540594520099
SD Negeri Pejaten Barat 06 Pagi,-6.277039199999999,106.83881020000001
SD Negeri 02 Duren Tiga,-6.252046668084209,106.84917950410066
SD Negeri Lenteng Agung 01,-6.324820965303112,106.83739015754936
SD Negeri Lenteng Agung 03,-6.324793325679477,106.83719177410767
SD Negeri Lenteng Agung 07,-6.339956415843896,106.837514221439
SMK Bunda Kandung,-6.28953905,106.84198604999999
SMK Pembangunan Jaya,-6.289050220366556,106.84204794435742
SMK Negeri 37 Jakarta,-6.288513773510293,106.84261022141382
"Yasporbi - SD III, SMP II",-6.2913309367931065,106.83727462699342
SD Negeri Manggarai Selatan 1 Pagi,-6.218033513965878,106.84628370308485
SD Negeri Manggarai Selatan 03 Pagi,-6.2230494004563,106.85197242411158
SD-SMP-SMA As Syafi'iyah 01,-6.220545768026897,106.85100461331066
SD Negeri Cipulir 05 Pagi,-6.2364885999999995,106.77547100000002
SMK Negeri 43 Jakarta,-6.235936768716587,106.7755483771681
SD Negeri Cipulir 07 Pagi,-6.2354125585739855,106.77647401573917
SD Negeri Ciganjur 01 Pagi dan 03 Petang,-6.335435996388054,106.80933051306404
SD Negeri Ciganjur 04-05 Pagi,-6.336495020911856,106.81133245199865
SMA Negeri 97 Jakarta,-6.342412997473282,106.80081925106381
SMP EL Syifa,-6.334614839648427,106.8070836500076
Mentari Intercultural School,-6.258064127343007,106.8064804989086
SD Negeri Cipete Utara 15 Pagi,-6.2625690639882015,106.80285816936806
SMK Negeri 59 Jakarta,-6.245608023822615,106.76943486203716
"SD Negeri Manggarai 5,6,7,8",-6.215597434011029,106.84830488218581
SMK Kesatuan,-6.210472927736717,106.85285846931608
SMA YMIK 2,-6.211125858865639,106.8527356501778
Erasmus Huis,-6.2340216383781915,106.82830892163105
MAN 7 Jakarta,-6.354367850000001,106.81920145000001
SMP Negeri 211 SSN,-6.354412467801402,106.81876943015104
SD Negeri Sregseng Sawah 11,-6.354082448131256,106.81886481454133
SMP Muhammadiyah 1 Jakarta,-6.356844227381312,106.80993554453921
SMK Jakarta Timur 2,-6.174127275844054,106.95079557741931
SD Negeri Kebon Jeruk 10,-6.200658809212903,106.76803580866796
SD Negeri Meruya Selatan 04,-6.211347209770554,106.72598142402246
Saint John's School,-6.20966672106857,106.72621528030542
Yayasan Abacu - TK & SD Abata,-6.203495012885704,106.75558187544237
Sekolah Bukit Sion,-6.200262425359915,106.7512000259615
Yayasan Abacu - TK & SD Abata,-6.203185825151898,106.75525340337765
"SD Negeri Srengseng 05 Pagi, 06 Pagi, 08 Petang",-6.202765328183634,106.75691993392736
SMK Negeri 51 Jakarta,-6.3200502842007005,106.89870688761562
"Sekolah Al Falah TK, SD, SMP dan SMA",-6.34271220386204,106.89256001530691
MI Negeri 20 Jakarta,-6.122784418697083,106.95753419367394
SMP Negeri 180 Jakarta,-6.319161897975055,106.90355357141449
MA Negeri 2 Jakarta,-6.320240756048709,106.88368358329224
SMP Negeri 283 Jakarta,-6.3228871746525375,106.89842198298317
SD Negeri Rawa Terate 03,-6.192925282876192,106.92313417676827
"Yayasan Pendidikan Islam Al Akhyar SD, SMP, SMK",-6.181851459684929,106.94534123257529
MI Negeri 18 Jakarta,-6.330389911554519,106.86094175526003
MTs Nurul Huda,-6.314977250726157,106.82753438035807
SD Negeri Jagakarsa 04 Pagi,-6.3249359138361285,106.82933509946673
SLBC Autis Mandiri,-6.255028224333621,106.78215475873357
SD Islam Ak Azhar 2,-6.296909189023991,106.83491698495791
Sekolah Kristen IPEKA Tomang II,-6.1695360775007115,106.77902484554069
SD Negeri Utan Kayu Selatan 09 Pagi,-6.207698145928404,106.87142015364078
"SD Negeri Rawa Buaya 07 Pagi, 08 Pagi",-6.164824373527764,106.73303766115565
Madrasah Al Mashiriah,-6.168779876249238,106.73316145272386
MI Al-Mashriyyah,-6.168232992316231,106.73298978078827
SD Negeri Pluit 01,-6.1246149129677185,106.79109659170034
SMP Remaja Pluit,-6.124891208614967,106.79088092438339
MI Daarul 'Ulum,-6.248877749999999,106.84085355000002
MI Al Falah,-6.2524040610294005,106.83768772615093
MI Nurul Hidayah,-6.249912055375882,106.83817336286397
Yayasan Raudhatus Sa'adah,-6.24477755,106.83489935
Yayasan Al Attihad,-6.2319473455274,106.84784839578926
SMP Negeri 50,-6.267341678361931,106.86915366357063
SMK Pelayaran Jakarta,-6.126945456616677,106.87450165985481
Pusat Kegiatan Belajar Masyarakat 11,-6.217794,106.85022015000001
SD Chandra Kusuma,-6.101465599999999,106.93103829999998
SD Negeri Tugu Utara 21 Pagi,-6.119508971367137,106.92025790102842
SD Negeri Kalibaru 03,-6.099598128037916,106.92859744786789
SD Negeri Semper Barat 01 Pagi dan 02 Petang,-6.121510415029324,106.92515951581802
SMP Nurul Falah,-6.111412815726996,106.92505418355896
"SD Negeri Tugu Utara 17,19 Pagi dan 18,20 petang",-6.11985928582121,106.91940299625529
SD Negeri Semper Barat 05 Pagi,-6.116253920198401,106.92314432780867
SD Negeri Cakung Timur 06 Pagi dan SD Negeri Cakung Timur 10 Pagi,-6.179309844028271,106.94867430028728
SD Negeri Rawajati 07 Pagi,-6.261839024367153,106.85862669193199
SD Ys.Kamboja,-6.271038921588724,106.84714623278619
SD Negeri Pejaten Timur 17 & 18 Pagi,-6.265878139242079,106.84658940671144
SD Negeri Pejaten Timur 22 Pagi,-6.271992014562098,106.8556641510155
SMP Negeri 46 Jakarta,-6.271543313610235,106.85505510119278
SD Negeri Pasar Minggu 02 Pagi,-6.289892621181401,106.84186952999809
SD Negeri Pejaten Timur 07 Pagi,-6.277299842109391,106.84644451498525
SD Negeri Pejaten Timur 05 Pagi & 06 Petang,-6.2967025846319435,106.84928603392854
SD Negeri Kembangan Utara 01,-6.176254569216769,106.73413099891616
"SD Negeri Cengkareng Timur 17 Pagi, 18 Pagi, 19 Petang",-6.147011411717336,106.7405664390783
SD Negeri Grogol Selatan 17 Pagi,-6.230305324189763,106.76639017003079
SD Negeri Duren Sawit 06 Pagi,-6.231282249999999,106.90910345000002
SMP Negeri 124 Jakarta,-6.258894376702501,106.82573078154483
SMA Negeri 37 Jakarta,-6.234722899126594,106.85881689559508
SMP-SMK Sejahtera,-6.125012598881759,106.90401011419335
MI Al Falahiyyah,-6.235250317390593,106.8163662550922
SMK Negeri 56 Jakarta,-6.119069949813082,106.79524131004324
SD Cinta Kasih Tzu Chi,-6.131657992255433,106.73763618046443
SMK Negeri 29 Jakarta,-6.240164057971183,106.8078509185842
SD Islam Qatrunnada,-6.171101899999999,106.86108540000001
SMP Negeri 33 Jakarta,-6.218116009957596,106.85155460519866
SMK Krisanti,-6.22354795,106.86214710000002
SMK Karya Teladan,-6.25802294277957,106.84298080111779
SD Muhammadiyah 16,-6.220696,106.85940550000002
MI Al Barkah,-6.292774733209838,106.83507817608869
SMP Jamiat Kheir,-6.192846147932228,106.8159448501813
Madrasah Asadiyah,-6.2347117999999995,106.85910139999999
SD Negeri Kebon Baru 11,-6.2347316500000005,106.86342795
SD Negeri Duren Tiga 09 Pagi - 10 Petang,-6.252676642863523,106.84878784162503
SMP Gratis Ibu Pertiwi,-6.248736900000001,106.84792890000001
Sekolah Alam Ciliwung,-6.277333032051353,106.85073860804005
Yayasan Spring Field School - SMA,-6.166894020541764,106.7463330557152
MTs Negeri 29 Jakarta,-6.346870098926958,106.90943481690232
PKBM Merah Putih,-6.308018531905951,106.78723112374111
SMP dan SMK Panca Sakti,-6.309709833705626,106.79598211641375
SMP dan SMK Amaliyah,-6.3543967368962475,106.83490690540084
SMP Negeri 233 Jakarta,-6.3633541266124,106.8830506081093
"SD Negeri Pegadungan 06 Pagi, 07 Pagi, 10 Petang, 15 Petang",-6.136344194504647,106.69282271391823
SMP Negeri 194 Jakarta,-6.234926284806679,106.92075861207667
SMPK 7 & SMAK 4 Penabur,-6.175271608915191,106.76298785798376
Yayasan Buddha Tzu Chi Indonesia,-6.107421987806616,106.73812547932081
SD Al Wasliyah,-6.216663229473764,106.85768649661424
Yayasan Baitul Khair,-6.21503655549998,106.85894324622619
SD Negeri Kamal Muara 01,-6.094501610469558,106.72031511230644
SMP Negeri 120 Jakarta,-6.0947392343828986,106.71990387646238
SMK Purnama Mandiri,-6.314417529948764,106.79974910335854
SMP Dharma Putra Nusantara 86,-6.307124074167974,106.80036945330815
"SD Negeri Kedaung Kaliangke 01 Pagi, 07 Petang",-6.1509208,106.77082874999998
SMP Negeri 132 Jakarta,-6.153519031245869,106.7592778238904
SD Negeri Semper Barat 03 Pagi dan 04 Petang,-6.12994276381009,106.92140232857048
SD Negeri Semper Barat 15 Pagi,-6.127602515188543,106.92307277223509
Yayasan Al Mustaqbal,-6.1355397499999995,106.92274334999999
TK SD SMP Islam Darus Syifa,-6.1288393495136,106.91916362328982
SD Bakti Luhur,-6.245101749999999,106.8114903
Yayasan Nurul Huda - RA Annashirin & MI Nurul Huda,-6.242004224361271,106.81397321623423
SD Adven,-6.1147084691175575,106.91757898609626
"SD Kebon Baru, SMP Sari Putra, SMK Sari Putra",-6.114742701605135,106.92051814254107
SD At Taqwa,-6.1123006473041,106.91922917979304
SLTP At Taqwa,-6.112255383337277,106.91928939748833
SD Negeri Kedaung Kaliangke 12 Pagi,-6.154109644266624,106.76283702998535
Itti Hadiyah,-6.166264099999999,106.73540055
Raffles House Preschool,-6.114625816201103,106.78529268694217
SD Katolik Diakonia,-6.11252175,106.78937775
Sekolah Rahmani,-6.164596259115401,106.73787337681067
Sekolah Harapan Kita,-6.124918189085496,106.78655448692162
SD Auliyah,-6.234403297499455,106.8682102476389
SD Negeri 09 Pagi,-6.139430696074599,106.71945180844949
SD Negeri 10 Pagi,-6.139173179315656,106.71952268568778
"SD, SMP, SMA Kasih Karunia",-6.139381099541562,106.72001127872828
SMK Negeri 53 Jakarta,-6.132234118794471,106.72573712458684
SMP - SMA St Kristoforus II,-6.134444237081187,106.72466636746975
Yayasan Miftahul Huda,-6.132985088429401,106.72442031908022
Yayasan Alfiani,-6.14888955,106.72287595
Madrasah Al Ihsaniyah,-6.230197427001986,106.86522429568761
MI - MTs Jauharotun Naqiyah,-6.24217645,106.86616269999999
SD Islam Asaadah,-6.238551243176177,106.86405445690762
SD Negeri Semper Barat 11 Pagi dan 12 Petang,-6.1297520284601426,106.92121002709185
Yayasan Baptis,-6.144219200000001,106.7463823
Madrasah Al Makmuriyah,-6.1270985254288926,106.92109526579746
Madrasah Al Muzayannah,-6.136537799999997,106.92238870000001
Madrasah Ukhuwah Islamiyah,-6.258330450000001,106.85718825
SMK Mardhika 63,-6.264402650000001,106.86246864999998
SLB Frobel Montessori,-6.285412637273619,106.8529781628479
SMP Negeri 35 Jakarta,-6.287990169190891,106.85339150336596
Yayasan Harvest,-6.258761751184501,106.86969192348954
MI Darussalam,-6.174777679100893,106.7568707626453
SD Negeri Kedoya Utara 01,-6.1738593999999996,106.75904995
SD Negeri 03 Pagi 07 Petang,-6.174207513888734,106.75630990401561
SLB Kusuma Bangsa,-6.162470682645784,106.7620433818813
Yayasan Al-Furqon,-6.28442650390073,106.84556772309391
MI Assalam,-6.293143225610797,106.84704155874014
MTs,-6.12955119012287,106.94022478191712
SD Al Aminiyah,-6.130629291761958,106.93805135150805
SD Az Zahra,-6.130365453458612,106.93749286695889
SD Kampung Sawah,-6.135578009750231,106.93966389658215
SD Gaya Remaja,-6.106149650000001,106.93102584999998
SD Capriasi Yoel,-6.110430897761447,106.92568801145927
TK dan SD Al Irsyad Al Islamiyah,-6.191763523275748,106.80889362526898
Yayasan Pengajian As-Sajadah,-6.190799850000002,106.8084772
SD 01/02 Bidara Cina,-6.231117299578084,106.86374982154658
MI Al Manar,-6.246756925730677,106.8657885039635
Madrasah Syarif Hidayatullah,-6.222398101554835,106.85328985482657
Madrasah Al-Waq Fiyah,-6.223336649999998,106.8555933
"SD, SMP, SMA Muhammadiyah 4",-6.249601005555586,106.86660451819435
SD Negeri Kebon Baru 5 Pagi / 6 Petang,-6.228011759707327,106.86035842768739
SMP Negeri 265 Jakarta,-6.2325481087343455,106.85922651474456
SD Negeri Kebon Baru 10 Pagi,-6.231828050000001,106.8590204
MI Nurul Jihad,-6.239285111531773,106.85973681752952
YPI Nurul Muttaqien,-6.241523979934637,106.85961696277431
Madrasah Nurul Hidayah,-6.255549006498853,106.86699472351123
MA Al - Quran,-6.162310000000001,106.72657495000001
SMK Ad-Da'wah,-6.172973780406263,106.72281963395083
Madrasah,-6.1558249504187845,106.72181697715907
SD - SMP Kristen Kalam Kudus,-6.168742886807424,106.71680116972247
MI & SMP Al-Yauma,-6.170223291478642,106.7202124325012
SD - SMP Impian Bunda,-6.172518087239891,106.71223576536205
"SD Negeri Duri Kosambi 09 & 10 pagi,11 petang",-6.166242639388419,106.72510761549789
SMA Impian Bunda,-6.172550483171428,106.71273489175286
SMP/SMA Kalam Kudus,-6.170894958005876,106.71510431645135
MTs & MA Annida Al-Islamy,-6.164491468376926,106.72476454780484
TK - SD - SMP - SMA Dharma Suci,-6.132696304323136,106.78736770048911
MI. Bahrul Ulum,-6.157429444612347,106.718679044662
"TK, SD Tunas Karya III",-6.145279756592253,106.91178889349065
"TK, SD, SMP, SMA Marie Joseph",-6.17368090866196,106.91550917485846
TK-SMU Pelangi Kasih,-6.17281744792022,106.91647475113439
SMP Darussalam,-6.311101553655826,106.7928539708178
Madrasah,-6.284951970339342,106.84570777866342
SD Negeri Tegal Alur 17 & 18 pagi,-6.120121673070667,106.72686946063982
SD Negeri Tegal Alur 03 pagi & 12 Petang,-6.12278645,106.71989165000001
SD Negeri Tegal Alur 11 Pagi,-6.128693043817268,106.71762257130646
"TK, SD, MTs. An - Nur",-6.128301829997878,106.71527127365971
"SD Negeri 01, 03 pagi & 08, 12 Petang",-6.129354172421083,106.74282965607064
SD Negeri Kapuk 15/16 Pagi,-6.130660449999998,106.74199989999998
Sekolah Duta Bangsa,-6.132584649999999,106.74395289999998
SD Negeri Cengkareng Barat 07 Pagi & 08 Petang,-6.15251167872772,106.72462620086728
SD Negeri Cengkareng Barat 11 Pagi,-6.144383112992718,106.72002603926688
SMK Bunga Nusa 1,-6.141722873500701,106.72472942366913
"SMP, SMA Al Huda & SMK Mutiara Bangsa",-6.1497308084502675,106.72688369904893
Madrasah Al - Asas,-6.1401845218040885,106.74613599474603
SD SMP Esti Bakti,-6.1402665292941885,106.76023956727909
Madrasah Diniyah Asysyamsuriyah,-6.13966846908712,106.71991254525126
SD Negeri Kapuk 05 & 14 Pagi,-6.143508035006862,106.7684594225392
SD SMP SMK Genesaret,-6.135292694471702,106.79915462266642
MI Al-Ifadah,-6.1323633000000015,106.80284315
SD Negeri 07 Duri Kosambi,-6.179190599999999,106.71423240000001
SMP - SMA Al-Itqon,-6.175239682705095,106.71940845493502
"SD Negeri Duri Kosambi 01 Pagi, 03 Petang",-6.176164335096216,106.72101990574895
MI dan Mts Al Falah,-6.125366782942462,106.80501936594082
SD SMP Wawasan Nusantara,-6.143064942423226,106.75268528572377
SMP Negeri 95 Jakarta,-6.115387606431841,106.88141300346149
"SD Negeri Cengkareng Timur 05 Pagi, 06 Petang",-6.149232449368836,106.72839570917726
SMP Negeri 248 Jakarta,-6.14965583501253,106.72922777552314
Madrasah,-6.150997150000002,106.73280165
Madrasah,-6.150860150000001,106.7343048
Masdrasah,-6.152597337001558,106.73664738036354
MTs Assa'adah Ulujami,-6.2371219201158725,106.7632663026399
MTs Al Quraniyah Ulujami,-6.235203787941961,106.76268357332658
SD Negeri Karet Tengsin 21 Pagi,-6.210652552021599,106.81448192755681
SMP Negeri 181 Jakarta,-6.210734540608609,106.8151716750031
SD Negeri Karet Tengsin 15 Pagi,-6.208906624696846,106.8144628095183
SMP Perwira,-6.246136333545194,106.76406870019352
SMP Negeri 38 Jakarta,-6.205154001229889,106.81390797220857
SD Al Ikhsadiyah,-6.14454282736401,106.92092879612585
SD Negeri Ulujami 06,-6.225161191871124,106.76476208603049
SDI Nurul Ahyar,-6.156192976387356,106.92625474386976
SD Kartika X - 7,-6.2518678,106.91456835000001
SD Negeri Cipinang Melayu 09 Pagi dan 10 Pagi,-6.25370929082304,106.91472971215467
SMP Negeri 109 Jakarta,-6.25264029408046,106.91454715796269
Madrasah Nurul Iman,-6.147800863598541,106.7333234309093
SD Kasih Setia,-6.146765577683606,106.73405775893964
Yayasan Panca Cemerlang,-6.135976169638213,106.73807289651276
SD Negeri Kebagusan 01 / 05,-6.3053989574083165,106.82770417742933
Sekolah Dian Harapan,-6.147284600363128,106.70754765042474
SD Negeri Pasar Minggu 04 & 05 Pagi,-6.292092206504997,106.83900260841769
Sekolah Bunda Mulia,-6.163515865777885,106.81240771546912
Raffles Christian School,-6.279837169151221,106.77856334121091
SMK Negeri 42 Jakarta,-6.143979915246982,106.72974495499551
SDS Trisula Perwari I,-6.193300447984896,106.85047823060788
"SD Negeri Cengkareng Timur 10,12 pagi & 11,13 Petang",-6.147027391385892,106.73316745495224
"SD Bina Mulia I, SMP Pelita II",-6.147505596369679,106.73547227589195
SMK Farmasi Tunas Bangsa,-6.194296838380564,106.85648260501564
SMP Negeri 17 Jakarta,-6.150205742721107,106.82745647401138
SD Negeri Cilandak Timur 05 Pagi,-6.284103100287367,106.81432889408994
SDN Marunda 02 Pagi,-6.094609450000003,106.96011650000001
TPA Assaniyah,-6.097044354947437,106.95788917421966
Taman Pendidikan Al-Quran,-6.094392079182835,106.9593490169451
Rumah Belajar Marunda Pitung,-6.095370118887616,106.96253895826484
SMP Negeri 115 Jakarta,-6.225158399406228,106.85425827628477
SMP Negeri 278 Jakarta,-6.109873888205254,106.6978400245863
SD Negeri Kamal 05/06 Pagi,-6.10034013450101,106.70836096924432
MA Negeri 6 Jakarta Kampus B,-6.358923788999333,106.88346741953701
SMK Taman Siswa 2,-6.1625440791425286,106.84514323838131
SD Sandika,-6.163380214486552,106.84457304661812
SD Negeri Baru 07 Pagi,-6.321262565237088,106.85110814770752
"SD Negeri Kebon Kacang 01,02 dan 03",-6.1932218480965435,106.81581799783942
"SD, SMP, SLB-E Handayani",-6.3229794316919765,106.89701040862319
MTs Negeri 26 Pulau Tidung,-5.795433098128037,106.48531677827692
SD Negeri Cipinang Muara 01 dan 12 Pagi/ 22 dan 23 Petang,-6.2147483446882354,106.89063109560367
SD Negeri Cibubur 09 Pagi,-6.353297093273224,106.87260683717196
SD Negeri Pekayon 5 & 12,-6.3518632225700955,106.86591252735866
Yayasan Wisma Dharma Mardiwijana,-6.207306989564781,106.85971224865176
MI Hidayatul Istiqomah,-6.162554986195758,106.74925712551322
"SD Negeri Cipete Utara 09, 10, 11, & 12 Pagi",-6.2587053988665735,106.80360358862269
SMK Telkom Jakarta,-6.154417400482488,106.75081533037181
TK SD SMP Assalafy,-6.23008467486078,106.87138213653928
"Yayasan Ziyadatul Arqom ( TK,MI,SMP Darul Arqom dan SMK Bhakti Pertiwi)",-6.22156271046712,106.87845251526365
SMP SMA SMK Dewi Sartika,-6.230505320570572,106.87245410296289
SD Islam Nurul Yaqin,-6.221893650000001,106.87912385
TK dan SMP Islam Annuriyah,-6.233284226951421,106.87189061627687
  Yayasan Yatim Piatu Al-Hawi,-6.263610991196798,106.86403343042984
SD Negeri Cipinang Besar Utara 07 Petang & 08 Pagi,-6.218321301574527,106.88088097712807
SD Negeri Cipinang Besar Utara 05 Pagi / 06 petang,-6.218289800000002,106.88140739999999
MTs Negeri 25 Jakarta,-6.215000895124268,106.89531712187946
SDIT-SMPIT Insan Mandiri Kalisari,-6.341678486608025,106.85466340281145
MTs Jauharotul Huda,-6.162095331611254,106.96381519623971
SDS Noah,-6.341447706220541,106.85707737693711
SLB B & C Karya Guna,-6.222463503020777,106.88383441977003
SMP-SMK Karya Dharma,-6.347984516718384,106.86257996985138
SD Negeri Pekayon 03 Pagi-04 Petang,-6.345099288802806,106.86249833299844
SD Negeri Cibubur 05,-6.36451850192806,106.88577308399377
SMA Negeri 55 Jakarta,-6.255533600389577,106.83920635188099
"SD Negeri Cipinang Besar Utara 01,03 Pagi dan 02,04 Petang",-6.215518395747167,106.87607154439449
Yayasan Pendidikan Shiddiqiyyah,-6.248545180680065,106.8687776058831
Yayasan Ummi Rahmah,-6.254518099999999,106.82539349999999
SD Negeri Duren Tiga,-6.254881256792559,106.82824183365402
Ponpes Daarul Ishlah,-6.268484383107448,106.83210914959332
SMK Satya Bhakti II,-6.210146998651191,106.85567859554307
SMK Satya Bhakti I,-6.210710999999999,106.8558233
HelloMotion Academy,-6.23845475,106.85145324999999
"KB, TK, SD, SMP Santo Vincentius dan SD Antonius",-6.236600574629785,106.86767485075866
SD Negeri Pisangan Baru 9 Pagi-10 Petang,-6.2135793801702075,106.87117778915268
SD Negeri Pisangan Baru 11 Pagi,-6.213190495851802,106.87117037696325
SD Marsudirini,-6.2115092999999995,106.85939275000001
PKBM Negeri 21,-6.228042100000001,106.85813105
SD Negeri Johar Baru 07 Pagi,-6.187844762318303,106.85745247477313
MTS Tanwirrul qulub,-6.21845758539054,106.82807802869807
SMP Islam Miftahussa'adah,-6.185940749000579,106.86255331215983
SMA Negeri 3 Jakarta,-6.20986685,106.8256643
MI Fatahillah,-6.274132654135283,106.83067215098814
SD Negeri Setiabudi 01 Pagi,-6.208917753213415,106.82352122205906
SMP Negeri 58 Jakarta,-6.208893749180117,106.82375049154041
Mifda Islamic School,-6.238838864953526,106.8560198808623
Perguruan Islam Al-Mughni,-6.23088138615827,106.82166106274316
SD Negeri Rambutan 03 Pagi,-6.303090077780767,106.87507483667989
SMK Muhammadiyah 10,-6.188076149999999,106.85196265
SMP Muhammadiyah 16,-6.1879976999999995,106.85189760000002
SD Nurul Falah,-6.187434932293069,106.85230036770938
"Yayasan Perguruan Sultan Hasanudin MI,SMP & MA",-6.269886364404668,106.83112284143158
Sekolah Santa Maria,-6.219447011384347,106.86389845075476
SMA Negeri 8 Jakarta,-6.217716199353732,106.85921141145741
Perguruan Islam Al Jihad,-6.185414182765163,106.85172802591491
MA Negeri 6 Jakarta,-6.301125855610582,106.87943427860355
SMP Mahasiswa,-6.208678785832395,106.86282217772802
SD Negeri Menteng Atas 05 dan 06 Pagi,-6.210628115569349,106.83704707007769
MTs dan MA Al-Qalam Terpadu,-6.20705285,106.84376670000002
SMP-SMK Trisula Perwari 1 Jakarta,-6.208951736681222,106.84361375230239
SMP Negeri 62 Jakarta,-6.221370598226237,106.87192600840713
SD Negeri Bangka 05-06,-6.265144494824481,106.81979399564973
MI Arruhaniyah,-6.134471683615381,106.96737122413823
SD Negeri Utan Kayu Selatan 20,-6.1991634963013755,106.86871210059698
Madrasah Diniliah Takmiliyah,-6.205838308935627,106.8602757802822
SD Negeri 09 Dukuh,-6.2955772911443075,106.87563028419028
MTS Ruhul Islam,-6.2090558388035815,106.84344110660166
SD Negeri Gondangdia 05 Pagi,-6.19521611870077,106.83833773246099
SD Negeri 03/04 Gondangdia,-6.195529618359573,106.8384997260072
SMP-SMA-SMK YAPERMAS,-6.202969822927257,106.84407165837253
SMP Nurul Hikmah,-6.201170248510729,106.8640419523907
MI Tarbiyatus Sholihin,-6.244234849999999,106.8526082
SD Darul Hikmah,-6.236832326533974,106.88003775370748
SD Negeri Utan Kayu Selatan 27 Pagi,-6.2078570276347,106.8712137365981
SMK Pemuda,-6.208106881273735,106.87187653476668
TK SD Yaspiah,-6.2391977148036855,106.86146500454737
MI/MTS Mu'awanatul Ikhwan,-6.225846594947195,106.87253040564735
MI Raudhatul Azhar,-6.2463260251638975,106.8570307036957
SD Negeri Rambutan 01,-6.29571608013521,106.87443613041916
Sekolah Pelita Harapan,-6.261913900000002,106.81310695000003
SD Muhamadiyah,-6.239949045701384,106.8662014748405
Yayasan Pendidikan Hapsah Amin,-6.237448800000001,106.86162145000002
Bimbel Prestasi,-6.2034417500000005,106.86248515
SD Negeri Cikoko I Pagi,-6.245366141556045,106.85406436830768
Jakarta Montessori School,-6.265733695484902,106.8202812001658
MI I'anatul Falah,-6.2466348499999995,106.84846795
SMP Mentari,-6.257796731671172,106.8066632705758
SD Negeri Cipinang Besar Selatan 18 Pagi,-6.232962600208452,106.88275512389428
Sekolah Bina Gita Gemilang,-6.233982469445226,106.84465693034072
MI Al Ittihadiyah Al Islamiyah,-6.234536064714166,106.84294934977228
MTs Miftahul Falah,-6.227476075150975,106.87905548762969
MI Masyaatul Islamiyah,-6.227077750000003,106.8782006
SD Negeri Pancoran 5 Pagi,-6.247717841546322,106.84776880759595
SD Negeri 03 Pancoran Pagi,-6.247665680307869,106.84810875071236
MI Al Husna,-6.234894470547272,106.83794245307514
TK - MI Al Ihsan Attahiriyah III,-6.2227005658331525,106.88235150420903
SD Negeri Rawasari 05 Pagi,-6.189906904073951,106.87013517324806
TK SD SMP Daarul Quran,-6.2268171500000005,106.84583285
"RA TK.Islam, MI, MTs Inwanul Huda",-6.237990393613516,106.88552446664916
TK SD Al Waqwiyyah,-6.223285090519087,106.85549392523748
SMK Pelayaran Lusiana Cawang,-6.25509482450903,106.8650100932189
SDIT Al-Iman,-6.22279415,106.8878678
SD 04 Pagi / SD 07 Petang,-6.297162567744154,106.87917197688927
SDN Pela Mampang 07 Pagi,-6.252694723429175,106.82250225783748
MTs Negeri 1 Jakarta,-6.253876570098263,106.82218769164504
Yayasan St. Fransiskus Asisi,-6.231049133287693,106.84312819167587
SD Negeri Cempaka Putih Barat 07-09,-6.187492579468408,106.86418535201692
SMK Berlian,-6.24180831958815,106.8644430982441
SD Negeri Cempaka Baru 11,-6.165894208644865,106.86288135336842
SD Negeri Cempaka Baru 12-13-14,-6.166462446958154,106.86262534251489
SD Negeri Kampung Melayu 01/02,-6.214997406652378,106.85958442134307
Perguruan Advent VI,-6.22199965,106.86533874999999
Madrasah An-Nas Hatul Hikmiah,-6.250285240485076,106.86039137295434
TK-SD-SMP-SMA Perguruan Islam Darulsalam,-6.236640347094952,106.81916405198376
SMP YPMII (Yayasan Pembangunan Masyarakat Islam Indonesia),-6.2192697,106.87107220000001
SDIT Al Mubarak,-6.189300664114887,106.86876456595498
Yayasan Pendidikan Islam Nurul Barkah,-6.18965475,106.86870649999999
TK Putra Fatahillah,-6.189006273372304,106.86787686411913
TK SD SMP Yayasan Pendidikan Islam Al Bayyan,-6.231179634714809,106.8368434525618
Sekolah Menengah Kejuruan Pelita Tiga No. 1,-6.204238591439351,106.87427961503606
SD Negeri Johar Baru 01 Pagi,-6.187315162734786,106.86170265147923
SMA Negeri 27 Jakarta,-6.182402996487502,106.86129214663522
"SD Negeri Johar Baru 03, 04, 05, 21, 23, 25",-6.183976860169058,106.85502400459117
SD Negeri 07,-6.225088347572944,106.853396198037
SMP Negeri 76 Jakarta,-6.188150149669235,106.85689110689074
"SDN Johar Baru 13, 14, 15",-6.182762521825715,106.85209634295337
"SDN Johar Baru 17, 18, 19",-6.182316695314242,106.85212206285286
SMK Negeri 31 Jakarta,-6.181844000000003,106.85211799999999
Sekolah Kristen Nasional Anglo KB-TK-SMP-SMA,-6.186702356296246,106.87289681421336
SD Negeri Rawasari 02-03 Pagi,-6.19121130090273,106.86510070416112
SD Negeri Rawasari 01 Pagi,-6.191276781179226,106.86387654156042
TK SD 17 Agustus,-6.228615146331167,106.84981938036526
SD Persatuan Umat Islam,-6.177027400000003,106.85454714999999
SMK Teknik 10 Nopember,-6.265433346668379,106.86665560453842
Yayasan Wanita Sejahtera,-6.253200337982405,106.86402190592906
Yayasan SMP Marsudirini,-6.2528022986919,106.8641059897954
SD Al-Ikhlas & SMP Taman Harapan,-6.256466655684164,106.86260592123696
Pesantren Aminah Boarding School,-6.25088237248813,106.86293176515335
Perguruan Tamansiswa Cabang Rawamangun,-6.1923998786102015,106.8620949049059
SDIT As-Sa'adah,-6.2642896034362465,106.8630132700342
SD Negeri Cempaka Putih Timur 03-05,-6.185155491927879,106.87031055951448
MTs Negeri 9 Jakarta,-6.182861833381997,106.8567202227828
SD Negeri Menteng 02 Pagi,-6.204345622639647,106.83761999110786
SD Negeri Menteng 03,-6.197541349402213,106.83805178921791
SMP Negeri 280,-6.197703898706939,106.83774976638993
MI Al Mu'Awanah,-6.180505873830852,106.8647740189626
Yayasan Pendidikan Islam Nahdlatul Ilmiyah,-6.233819761232344,106.86871313007968
SD Negeri 015,-6.228383090414802,106.85801635241374
SMP Negeri 73 Jakarta,-6.235942516089702,106.85540998275901
SMP Muhammadiyah Tebet Timur 10 dan 36,-6.235394958897948,106.85643101230308
SD Negeri Pancoran 01 Pagi,-6.247321776866566,106.83811394839178
SD Negeri Pela Mampang,-6.252465005433312,106.81136665671629
SD Negeri Pengadegan III Pagi,-6.250601887260323,106.85893914500902
Yayasan Thayyibah Indonesia SDIT Tunas Muda Islam,-6.267970266573142,106.86241136810655
SMK Negeri 64 Jakarta Timur,-6.249655641833222,106.86970925747526
SMK Negeri 10 Jakarta,-6.255591766851261,106.86986711365967
SD Negeri Cawang 07 Pagi,-6.250069135906683,106.86945512244618
SMK Negeri 64 Jakarta Timur,-6.249623352129054,106.86933185980605
SDS Harapan Prestasi,-6.253035516267556,106.86497006537064
SMK Negeri 32 Jakarta,-6.229103931285517,106.84964720292811
SD Negeri Cawang 01,-6.25603485586457,106.8611643320341
SD Al-Quran Al-Hayah,-6.263786797638277,106.85881176981081
SD Negeri Kampung Rawa 02,-6.180119899434562,106.85897860057347
"SD Negeri Galur 01, 02, 03, 04 Pagi",-6.177477967164149,106.85602326674048
SD Negeri Pulo 07 Pagi,-6.250546019616456,106.80857884336969
MI Ukhuwah Islamiyah,-6.258382276214629,106.85737081295795
"SD Negeri Paleriam 01 Pagi, 02 Petang, 03 Pagi",-6.20662828411422,106.86003666828096
MI-SMP-SMK Al-Falah,-6.24389609003995,106.82495143963526
SD Negeri Mampang Prapatan 02 Pagi,-6.244634878504193,106.82875407445408
SDS Muhammadiyah 23,-6.196503107119086,106.86206171827072
SD Indonesia Persada Gemilang,-6.193931075701563,106.86432939232792
SD Negeri Gondangdia 01,-6.194392590945378,106.82852427545814
SD Negeri Cempaka Putih Barat 21,-6.181777514053965,106.86468680301986
SD Kresna,-6.260188230108997,106.87260432832771
SD Paskalis 1,-6.177295274058876,106.84824738303722
SD Negeri Percontohan Cempaka Putih Barat,-6.178735943885578,106.85998729875031
SD Negeri Cempaka Putih Barat 03 - 04,-6.177292689060959,106.85911158745287
SD Negeri Cempaka Putih 01-11-13 Pagi,-6.17530054374068,106.86316545625311
Yayasan Bhakti Likhita Butala,-6.178761651018301,106.86396134350684
Yayasan Perguruan Ksatrya Lima Satu (SMP-SMA-SMK),-6.1863406221371235,106.86728518976433
SD Negeri Cempaka Putih Barat 19-20-26,-6.17710614700998,106.85967260670398
SD Negeri Cempaka Putih Barat 17,-6.180124584773157,106.86659581427872
TK-SD-SMP Sekolah Khatolik Melania,-6.186343607160009,106.86952953351488
SMP Negeri 156 Jakarta,-6.182347133912061,106.85044097608241
SD Inti Tanah Tinggi,-6.18218072470913,106.85023215096119
"SD Negeri Tanah Tinggi 03, 04, 05, 06 Pagi dan 04 Petang",-6.176073801134529,106.84675317092241
SD Al-Ittihadiyah,-6.179152633541517,106.84728238572819
SMA Negeri 44 Jakarta,-6.2221125154899415,106.92919022529702
SD Negeri Malaka Sari 01 Pagi,-6.225912798389852,106.92971651783384
SD Kupu kupu,-6.247802573501585,106.81258829569035
SMP-SMA Garuda Cendekia,-6.2471485316508675,106.81256521917686
Kids Republic,-6.238303077688038,106.88938320520177
SMA Negeri 54 Jakarta,-6.2211484817494815,106.87095003740956
SMP-SMA San Antonius,-6.2213502960474605,106.87361250256671
SD Negeri Pegangsaan 01,-6.1978205948353375,106.84230196607552
SD Negeri Balimester 03 dan SMP Negeri 14 Jakarta,-6.214409163666358,106.86521422099553
SD YBPK,-6.193502403142275,106.84279737197906
Yayasan Perguruan Khrisna,-6.230550613604659,106.86960114709841
SMP Negeri 71 Jakarta,-6.18493737706981,106.87424899461162
MA Negeri 3 Rawasari,-6.18467577590206,106.87280814388036
MI Al-Balagh,-6.183169472197264,106.87243301167513
SDIT Cempaka Ria,-6.183433868105958,106.87240439755408
SD Negeri 01-02 Pagi,-6.224585054057195,106.841084775396
SMK Yasda,-6.229133378819906,106.83684428355532
MTs Al Wathoniyah 4,-6.210832370028653,106.91864343109837
Sekolah Katolik St. Theresia,-6.189899571699578,106.82593770038022
SD SMP SMA ST. Bellariminus,-6.190447217714931,106.82674589478422
SD Negeri Pancoran 07 Pagi,-6.247487385589701,106.83627237186845
Sekolah Kolase Loyola,-6.205288681134807,106.83924932902362
SDIT Nurul Yaqin,-6.27114222870018,106.85938993743152
SD Negeri Menteng Dalam 05 Pagi,-6.239081190606326,106.84385641376174
Yayasan Nusa Jaya,-6.20061718727154,106.86268511477556
SD Negeri Cipinang Cempedak 09 Pagi,-6.242190985271593,106.87333415297054
SMP Cipta Karya,-6.242057441633109,106.87315301850934
SD Negeri Cipinang Cempedak 05 Pagi,-6.241834677445316,106.87277044165877
"SMP,SMA,SMK Cawang Baru I",-6.242735635419425,106.8705800295327
MI Nurul Islam,-6.215832608030604,106.84788976641688
SD Islam Terpadu Rawasari,-6.1834189551486185,106.8703969233036
Yayasan Pendidikan Afrika (Madrasah Sudan Asia Afrika),-6.229335500000002,106.85930550000002
TK - TPA Al Kautsar,-6.219569161063127,106.83780496622255
SD Negeri Menteng Atas 18 PT,-6.217319788541516,106.84101510033715
SMPN 67 Jakarta,-6.216948522860021,106.84125959276189
SD Negeri Menteng Atas 14 dan 17,-6.216829959321789,106.84115279321895
SMA Negeri 43 Jakarta,-6.216262032533589,106.84153598139747
SMPIT Arrahman,-6.216732155808682,106.84384169359451
SD Negeri Batu Ampar 07 Pagi,-6.2844923772092,106.86250465150253
Yayasan Perguruan Alhisan (SD - SMP),-6.271548805529395,106.86469485486367
SD Negeri 01 Batu Ampar,-6.276008113950304,106.86604176673521
SD Negeri Batu Ampar 12 Pagi,-6.278464924741361,106.8608992403315
SD Negeri Batu Ampar 09,-6.289562699999999,106.8574195
SD Negeri Batu Ampar 10,-6.282423125706968,106.86287828081768
SD Negeri Batu Ampar 06 Pagi,-6.2765728904408915,106.8616251072631
SD Negeri Batu Ampar 05 Pagi,-6.284125218819428,106.86395389530846
SD Negeri Kebon Baru 7 Pagi,-6.231850419309005,106.85876479797291
Yayasan Perguruan Al Washliyah,-6.200954902733659,106.86238440579011
SD Negeri Batu Ampar 11 Pagi,-6.284381282181303,106.85887083418208
MI MTS Madrasah Tarbiatul Mutaallimin,-6.234032950000002,106.85025205000001
Madrasah Ibtidaiyah Al Falah,-6.18294305,106.83700305
TK-SD Rumpun Cempaka,-6.172198801352149,106.86932701521457
SMK Negeri 39 Jakarta,-6.171206095917678,106.87041186871296
Yayasan Pendidikan dan Kesejahteraan Umat Islam,-6.2712011861446815,106.858430113122
SMA Negeri 51 Jakarta,-6.276032747995698,106.86164384939426
SD Cempaka Wangi,-6.177980357274743,106.87221189904164
MI Al Wathoniyah 7,-6.205930143245561,106.9223720683067
MI & MTs Al Wathoniyah Al Hamidiyah,-6.206527723854634,106.9208279412373
"SD Negeri Cipinang Cempedak 04, 07 Pagi dan 03,08 Petang",-6.227472900000001,106.87223705
SMP Negeri 36 Jakarta,-6.22718413337849,106.87228880644567
SMP Sunah Giri,-6.2046688921194555,106.87147516872689
SD Kemala Bhayangkari 4 Yayasan Kemala Bhayangkari,-6.2425208160048,106.82252172657466
MI Al Wathoniyah,-6.214181876215423,106.92029960552583
MTs Sirrul Asror,-6.21200489876949,106.92061837531939
"TK, SD, SMP Kartika X-I",-6.2126889695667105,106.86215641140708
SMP Negeri 238,-6.259854248546043,106.8346246823255
SD Duren Tiga 14 Pagi,-6.2595519984080585,106.83467321666933
SD Negeri Duren Tiga 13,-6.259186796829778,106.83468454958663
Perguruan Nurul Iman (TK-SMP-SMK),-6.214001789997274,106.87237749672538
SD Negeri Cipinang Cempedak 01 PG,-6.232078546616689,106.87345548355525
Yayasan Mubasysyirin Setiabudi,-6.215468722243523,106.82628537815648
Yayasan Pendidikan dan Kebudayaan Respati,-6.213681098413732,106.82740595536751
MI At-Taqwa,-6.245775221747509,106.81650184527734
MTS As-Sa'adah,-6.264438311006901,106.86277882805688
SD Budi Waluyo II & SD luar biasa Bag.C Yayasan Budi Waluyo,-6.242089885760672,106.81751664238186
SD Negeri Duren Tiga 05,-6.254474331933225,106.83706245312165
SD Negeri Tebet Timur 01 dan 03 Pagi,-6.233309420868193,106.85479335039007
SMA Negeri 30 Jakarta,-6.186968524716355,106.87463074141462
SMA Negeri 77 Jakarta,-6.1751859499999995,106.86678805000001
SD Negeri Pisangan Baru 13,-6.209334245177225,106.87044923858811
SD dan TK Amir Hamzah,-6.2043466284391515,106.85029941201027
SD Miranti,-6.204143802538323,106.84987036631705
SD Negeri Kalibata 04 Pagi,-6.260917671871607,106.84563176780033
SMP-SMK Yaspen Jakarta,-6.210999337320805,106.83920663255321
STAB Samantha Badra - NSI,-6.211902782070968,106.84488656278741
SMA 1 PSKD,-6.197770606383028,106.8480880800228
"SMK Walisongo, MTs dan Diniyah Fathimatul Amin",-6.262278549091285,106.84550204323838
TK - SDS Rumah Kita,-6.194158814698629,106.845763370943
SMK Rahayu Mulyo,-6.278284941226409,106.8664699230874
MTS Negeri 6 Jakarta,-6.283034240269263,106.86183840696178
SD Negeri 08 Batu Ampar,-6.290249253753551,106.85743479513305
SMP Negeri 126,-6.283992929777117,106.86333512823136
SMP Negeri 1 Jakarta,-6.192643796692061,106.83943904135236
Sekolah Yayasan Amamur,-6.191161736185603,106.84265239329923
Sekolah Yayasan Perguruan Cikini,-6.194970566069884,106.83919428626565
SD Negeri 01 Cikini,-6.19403971174119,106.84225935967336
"SD Negeri 02,03 dan 04 Cikini",-6.194414991762296,106.84229733483986
TK dan SD Kwitang 2,-6.186462902223364,106.84181636025711
SD Negeri Cipinang Besar Utara 09,-6.217561814679143,106.88136212626672
MI - SMPIT Al Hikmah,-6.248835727670793,106.81848132529727
SD Negeri 12 Pagi & 13 Pagi,-6.248556649999999,106.81164084999999
"SD Negeri Pela Mampang 05 Pagi, 06 Petang, & 11 Pagi",-6.249103587687272,106.82127992292206
SD-SMP Delima School,-6.253289318265431,106.81832608411042
SMP Negeri 141 Jakarta,-6.249000793801264,106.82215183611531
"SMP, SMA, SMK 28 Oktober Jakarta",-6.250096350966746,106.83509433951798
Mts-Ma Al-Khairiyah,-6.245449056676544,106.83126627532654
SD Negeri Tegal Parang 05 Pagi,-6.246307564696266,106.83328885335163
SD Negeri Tegal Parang 01 pagi 02 petang 03 pagi,-6.248939191485146,106.82982967848103
TK dan SD Indriyasana,-6.229769225959224,106.84162611043006
Sekolah Yasporbi,-6.23945863419517,106.84185235622357
SMP Negeri 15 Menteng,-6.239530620898541,106.84447551115355
SD Negeri Menteng Dalam 11 Pagi,-6.239292406815315,106.84455351493163
SD Negeri Pela Mampang 08/09,-6.250264852661854,106.82007462133544
SD Negeri Manggarai 03 Pagi dan 04 Petang,-6.212312551251482,106.85375292603459
"SD Negeri Manggarai 09,11,13,15,17,19 Pagi",-6.216142103148443,106.85504450905381
Pondok Pesantren Hikmatun Nuur,-6.292482367311443,106.86222765956188
"Sekolah Kejar Paket A,B,C Dinas Pendidikan Jakarta Timur PKBM Negeri 12 Tengah",-6.290099394594357,106.86888948952134
SD Negeri Tengah 09 Pagi,-6.292964662167686,106.86221483854676
SD Negeri Tengah 08 Pagi,-6.293356647516799,106.86219936921174
SD Negeri Tengah 06 Pagi,-6.292937605013299,106.86183755070392
SD Negeri Tengah 01 Pagi,-6.288096600000005,106.8676531
SD Negeri Tengah 02 Pagi,-6.2879510111075385,106.86741285596776
SMK Negeri 46 Jakarta,-6.217082100267332,106.88386500870284
"Yayasan Pendidikan Islam Pulogadung TK,SD,SMP",-6.197750802083096,106.90567980920005
"Yayasan Al Wathoniyah Pusat TK, MI, SMPIT, STM",-6.210396548848318,106.9035798154762
"SD Negeri Jatinegara 03 Pagi, 05 Pagi",-6.2038658660931505,106.90581358658203
SDS Yayasan Pembina Bhakti Karya,-6.223206579375251,106.87752178295801
SD Negeri Cipinang Besar Utara 10 & 11 Pagi,-6.220241878459459,106.88043877331748
TK-SD-SMP-SMK Dwi Cakti Bakti,-6.2184123220140775,106.87622295851031
MI Miftahul Huda,-6.157691524598687,106.80043065807877
"Yayasan Pendidikan Masyarakat Islam ""Bahagia"" (SD/SMP/SMK)",-6.159129068538832,106.79897763201555
SMP Negeri 243 Jakarta,-6.218759414975966,106.88515210435972
SD Insan Muda Cendekia,-6.2635838,106.82924045
SMP Negeri 3 Jakarta,-6.212420963606821,106.85527180413683
SD Negeri Kayu Putih 09 Pagi,-6.174534349999996,106.88180399999997
MI Al Khariyah Pagi,-6.2448607670344645,106.83123495047288
MTs-MA An-Nur,-6.1674222395881175,106.84445422422408
SD Negeri Tebet Barat 08,-6.241464635445179,106.85031803980182
"SD Negeri 01-03 Pagi, 02-04 Petang",-6.204644926760396,106.86758701062963
SD Negeri Duren Tiga 01 Pagi,-6.253878500000001,106.84221264999998
MI Negeri 13 Jakarta Timur,-6.290381223233246,106.86422134452442
MTs Persatuan Islam 69,-6.203985491111466,106.87016950254177
"SD Negeri Jatinegara 08 Pagi ,09 Pagi, 13 Petang, 14 Petang",-6.213666892484065,106.92170147014099
"Yayasan Pendidikan Lathifiyah - RA, MI, MTs Yapila",-6.202931866529787,106.92063577684979
MI Al Wathoniyah 4,-6.211260872889098,106.91855811667581
MA Al Wathoniyah 5,-6.214190486321262,106.92046449542292
"SD Negeri Jatinegara 01 Pagi, 02 Pagi, dan 11 Petang",-6.196793511051857,106.92093257093768
SD Juara,-6.208695525300465,106.92160768667686
MI LKMPDK Rabiatul Adawiyah,-6.150928841551521,106.79744267300511
SD Negeri Pisangan Baru 05 Pagi,-6.210895432260333,106.87266004778384
Yayasan Nurul Islam Pulo Jahe,-6.197759325627271,106.92432403746776
MTs Tsaqofah Addarain,-6.196639856743786,106.92291837528632
SD Negeri Jatinegara 06,-6.198719031205425,106.92610684672269
Buah Hati Islamic School,-6.29068879608599,106.86318238958243
SD Negeri Tengah 03 Pagi,-6.285833113279156,106.86945224028834
SD Negeri Tengah 05 Pagi,-6.289293840048458,106.86212171932696
SMA Negeri 93 Jakarta,-6.292145457775422,106.86960636989754
"SMK 1, SMK 2, SMA Respati",-6.287447538639716,106.86630261070636
SD Negeri Jatinegara 15 Pagi,-6.206650011175611,106.92489455705437
MAN 20 Jakarta,-6.206119550000001,106.9255632
MTs Al-Wathoniyah 06,-6.208905436565472,106.92412131658277
MTs Negeri 31 Jakarta,-6.2059316795996295,106.92652643116823
SMA Negeri 107 Jakarta,-6.205783730112855,106.92546906107502
SMK Negeri 16 Jakarta,-6.20482050208825,106.85023523461591
Perguruan Taman Siswa,-6.203154849944265,106.85410391388936
"TK-MI-MTs Al Wathoniyah 08, SMP YPIA Pengarengan, SMK Sriwijaya",-6.200836826198531,106.92216483599718
SD Negeri Kebon Kosong 03 Pagi,-6.153369942070968,106.85691618350823
SMP Negeri 104,-6.251077608831704,106.82467285260132
Yayasan Madrasah Sa'datuddarain,-6.252106902924181,106.82740964391999
Sekolah Kolese Kanisius,-6.185705132428455,106.83468467285093
Pesantren Al-Quran Al-Hidayah,-6.276626421924277,106.85191546069635
SD Negeri Balekambang 01 Pagi,-6.2750390305405235,106.8523986209071
MIS Unwanul Huda,-6.265595382835868,106.83529842249163
SD Negeri Kalibata 03,-6.264978514961963,106.83822085786487
SMA Negeri 4,-6.178742299847416,106.83555995453662
SMK Negeri 2 Jakarta,-6.17823237368738,106.83421863948033
SMK Farmasi DITKESAD,-6.174832132600136,106.83498984357682
SD Laboratorium PGSD - FIP - UNJ,-6.210368122214478,106.82558359041532
SD Budi Wanita (Pagi-Petang),-6.210581447361829,106.82611723047768
Yayasan Perguruan Islam Daarul Hasanah Amanah,-6.263466283432369,106.83218294404013
SMP Islam As Syafi'iyah 02,-6.218860370748345,106.84896691875856
Yayasan Pendidikan Havard (TK-SD-SMP-SMK),-6.142926854892741,106.79599606415375
SD Islam Teladan YKPI PG/PT,-6.1484956,106.79778024999999
MI Miftahul Huda,-6.144506750000001,106.79501469999998
Sekolah Dhammasavana (TK-SD-SMP-SMA-SMEA),-6.143606790936545,106.79267128252617
SD Negeri Bukit Duri 05 dan 07 Pagi,-6.220381964923029,106.85395436946509
SMK As Syafi'iyah,-6.220370258797459,106.85344099934922
SD Muhammadiyah 52,-6.222895682668809,106.86269139809271
SD-SMP-SMA Global Islamic School,-6.282028948758354,106.85447952946035
Pesantren Tapak Sunan,-6.29071703989567,106.85053576672557
Yayasan Adi Luhur,-6.292929305193192,106.85535913198808
SDS Sari Putra,-6.147033111414926,106.79315487682446
Bina Pengudi Luhur (SMP-SMK-SMA),-6.203357100000003,106.87043554999998
SD Negeri Utan Kayu Selatan 16 Pagi,-6.198998275051048,106.86869610211431
SD Negeri Utan Kayu Selatan 25 Pagi,-6.199778314381652,106.86881492546917
Bukit Sinai School (KB-TK-SD-SMP),-6.146252265270621,106.79765271774153
SD Negeri Jembatan Besi 01-03 Pagi 02-04 Petang,-6.1529547082879805,106.79848829928865
Sekolah TK-SD Budi,-6.15096525,106.79867155000001
"Yayasan Satya Bhakti (SD, SMP, SMA Santa Ursula)",-6.168291472750028,106.83315895825343
SD Negeri Kalibata 11 Pagi,-6.262022906097546,106.8420767567776
"SD Negeri Paseban 15,17,18 dan 19",-6.196309252003401,106.85440665615452
Yayasan Pendidikan & Sosial Fatahillah,-6.2740152357885375,106.8318670632374
Yayasan Pendidikan Al Akhyariyah,-6.2037010709364,106.92056616858595
SMP Negeri 137 Jakarta,-6.180523085874134,106.86692002797446
Yayasan Tunas Harapan Cempaka Putih (TK-SMK),-6.1803606215679,106.86540930524761
"RA, MI Al Wathoniyah 16",-6.184820038328652,106.92429678958983
Yayasan Pendidikan kaum Ibu kebayoran,-6.252801806522202,106.83970257241958
SMA Perguruan Cikini,-6.253064490727424,106.83344994267509
Yayasan Al Muhyi Al Istiqomah,-6.181417825505349,106.92212749947372
SMPK Penabur,-6.198039661368759,106.8474923538148
SMA Negeri 68 Jakarta,-6.197720517917105,106.85083378802597
Komplek Sekolah Saint Joseph,-6.18695846510271,106.84340770723225
SD Negeri Kwitang 01/02,-6.1850261053462265,106.84300522788521
MI Al Wathoniyah 43,-6.158517851892833,106.95291559771307
TK - SD Nazareth Kudus,-6.1685706280015005,106.84977141893026
"TK, SD, SMP, SMA Al Wathoniyah 14 Jakarta",-6.1607869427470625,106.95240988633488
SMK Bina Citra Asia,-6.270569543309368,106.87150181276527
Yayasan Pendidikan Islam MI Al Munir,-6.2694034,106.87506040000001
SMK Negeri 40 Jakarta,-6.1984400956196435,106.8694012355929
PG-TK-SD Al Barra,-6.194050635409391,106.87120289096809
SMP - SMK Pembangunan,-6.193727731595909,106.87122219038412
FQMI Flowing Quran,-6.2741953541891835,106.87365432343576
SD Negeri 02 Kramatjati,-6.273684234602521,106.86977530229456
SMP Negeri 219 Jakarta,-6.2168075437976595,106.72474187267386
Sekolah Perguruan Advent I Jakarta,-6.179323350000001,106.8436272
SD Negeri Bukit Duri 03 dan 04 Pagi,-6.2198986223956565,106.85377403719257
SD Negeri Utan Kayu Utara 01,-6.1960612200685246,106.87300174795155
"Komplek SD Negeri Bukit Duri 01,09,10,11",-6.222557049999999,106.85859335000002
SMK PGRI 2 Jakarta,-6.16123725,106.74831894999998
SMP Negeri 2 Jakarta,-6.181660369220308,106.86121497414862
SMP Negeri 28 Jakarta,-6.182040031765018,106.86062530615743
TK-SD-SMP-SMK Tamansiswa,-6.16190366960678,106.84232337903883
SD Negeri Utan Kayu Utara 07 Pagi,-6.1978218499999995,106.86643444999999
SD Negeri Utan Kayu Utara 08 Pagi,-6.197788549999999,106.86594195
SD Negeri Utan Kayu Utara 11 Pagi,-6.195821967884179,106.86791480579663
TK-SD 3 Perguruan Rakyat,-6.194736496858248,106.86296618454769
MI Sa'adatul Muslimin,-6.258150888073144,106.82331004874075
SD Negeri Cipinang Muara 18 & 21 Pagi,-6.236836058982919,106.88898869559296
SD Negeri Cipinang Muara 19 & 20 Pagi,-6.237255213543914,106.88822276727824
SD Negeri Cipinang Muara 05 Pagi,-6.23374605,106.88641850000003
SD Kwitang I PSKD,-6.184084015410935,106.81892722937802
SD Negeri Kampung Bali 03 Pagi,-6.183495101773383,106.81714501771764
SD Negeri Kampung Bali 01,-6.181758548464847,106.81507320570525
SMP Negeri 273 Jakarta,-6.186051880064224,106.81791138382924
SD Negeri Kampung Bali 07 Pagi,-6.186250721368228,106.81846140946986
"KB-TK-SD-SMP ""JOY""",-6.140538480004839,106.80233990585391
SD Negeri 01 Pekojan,-6.137495662741374,106.80239125505945
SMP Jame Pekojan,-6.140746657468421,106.80461532043735
SMP Raudlatul Islamiyah Pekojan,-6.140482094500546,106.80107628263895
SMP Negeri 32 Jakarta,-6.13973877168245,106.80719584662357
SMK Negeri 50 Jakarta,-6.227825403564574,106.8908177646778
SD Negeri Cipinang Muara 02 Pagi,-6.227609999999999,106.88523735
TK SMP SMK Pandawa,-6.227674105521669,106.88545222498738
SD Negeri Batu Ampar 02 Pagi,-6.278910689619737,106.86110983492803
SDIT Al Khairaat,-6.2788442254429775,106.85710544909786
"SDN Palmerah 01,03,05 Pagi",-6.205012545404913,106.79612537604214
SMP Negeri 209,-6.289082657590165,106.86237091248552
SLB C Dian Grahita,-6.154582216487219,106.8400413296867
SMK Prima Wisata,-6.173593401526089,106.74872176842621
SD Negeri 07 & 08 Cipinang Muara,-6.225672704019726,106.88641903097364
SMP Negeri 52 Jakarta,-6.225334349788083,106.88663262564398
Yayasan Spring Field School,-6.17616119264791,106.73867847613974
SMP Negeri 49 Jakarta,-6.285527557202665,106.87146147092032
SD Negeri Cipinang Besar Selatan 17 Pagi,-6.236471731881323,106.88353401162183
SD Negeri Cipinang Besar Selatan 16 Pagi,-6.236385230993627,106.88403792300645
SD Negeri Cipinang Besar Selatan 19 dan 20 Pagi,-6.237585124130387,106.88169604183726
SMP Al Karomiyah,-6.20078201242264,106.90622975706006
YPI Sa'adaturadain,-6.1805883470904295,106.73212039159263
SD - SMP Yayasan Al Fatiyah,-6.279189887588935,106.85173696391759
SMA Negeri 25 Jakarta,-6.167572460965153,106.81343931554899
SMK Hatawana,-6.2295296627864545,106.87921680234848
SD Negeri Cipinang Besar Selatan 15 Pagi,-6.223731351567166,106.88183642071718
SD BPS&K Pembangunan III,-6.221990018729252,106.88178551963462
SD Negeri Cipinang Besar Selatan 13 dan 14 Pagi,-6.229296417736452,106.8819104096726
SD Negeri Cipinang Besar Selatan 07 Pagi,-6.227439908164789,106.88159799332777
SD Negeri Cipinang Besar Selatan 01 Pagi,-6.228380224800213,106.87808668885793
SD Negeri Cipinang Besar Selatan 03 dan 04 Pagi,-6.218547972574879,106.88603983388128
SD Negeri Cipinang Muara 04,-6.219258049999999,106.89537339999998
SMA Negeri 50 Jakarta,-6.2195832938027875,106.89549310526395
SMP dan SMK Muara Indonesia,-6.221242363138521,106.89303433869374
Yayasan Al Utsmani,-6.273632612575476,106.85548265478987
SD Sekolah Ricci,-6.142621500000001,106.81228804999999
Yayasan Pendidikan Kristen Kemuliaan Bunda TK-SD-SMP,-6.143637600000001,106.80341690000002
SD Emanuil,-6.143067690228545,106.81141230628585
SD Negeri 24 dan 27 Kramatjati,-6.276626235884379,106.87153179594021
SD Negeri Kramatjati 07-13 Pagi,-6.269192487427517,106.86874665540863
SD Negeri Kramatjati 19 Pagi,-6.285771057325108,106.87279282495929
SMA Negeri 62 Jakarta,-6.28531696700106,106.87276090459959
SMP Negeri 281,-6.275224840214282,106.87095258435421
"Yayasan Budhi Warman SMP, SMA, SMK Warman 1",-6.279403820303285,106.87276944723892
TK-SD-SLTP Candra Jaya,-6.14637285,106.80146330000001
MTs Chairiyah Mansuryah (pagi) SMPI Chairiyah Mansuriyah (Siang),-6.145249337853218,106.80593189028272
SD Negeri Jembatan Lima 01-03 Pagi 02-04 Petang,-6.1472801712287195,106.80647548389999
SMP-SMA-SMK Diponegoro 2,-6.179782648670349,106.94842403102265
Yayasan Nurul Falah MI-Mts,-6.182936652836971,106.94813249717805
Madrasah Ibtidaiyah Al Wathoniyah 3,-6.181296499999999,106.94694569999999
SLB C Sinar Kasih,-6.2060550999999995,106.87897589999999
SMP Muhammadiyah 27 - SMA Muhammadiyah 11,-6.167559193181095,106.85654279111748
Taman Pendidikan Kencana TK-SD,-6.1726021157617375,106.85366980932588
SLB B & C Dian Kahuripan,-6.206476239057418,106.87843817550834
SDI As-Salam,-6.166861818407288,106.85695272079244
SD Negeri Harapan Mulia 03 Pagi-04 Petang,-6.173156312552167,106.85609680267862
SMP Negeri 269 Jakarta,-6.170910419482177,106.85518180517867
"TK, SD, SMP Mekarsari",-6.181052599999997,106.88302334999999
SD Mekarsari,-6.181045256828979,106.88260934466498
SD Islam An Nur,-6.181279922764225,106.88208601619912
Yayasan Darussalam,-6.174953708569153,106.80849780727678
SMP GIKI 5,-6.177333217803047,106.81005379178765
"SD Negeri Cideng 04, 09, 10, 13 Pagi",-6.177098421766715,106.80979202276448
SMAK 5 Penabur,-6.179131,106.89187295
MTs Assa'adah,-6.1630305633048055,106.9646128012011
"SD, MTs, SMK Al Qudwah Al Muqoddasah",-6.169224681431145,106.94942784473739
SMA Negeri 89 Jakarta,-6.1756503177356,106.95154042177782
SMP Negeri 234 Jakarta,-6.1754632208914355,106.9510489127003
"SD Negeri Cakung Timur 03 Pagi, 09 Pagi, 08 Petang",-6.17249239537004,106.94915666339718
SD Negeri Cakung Timur 04 Pagi,-6.1721503532227775,106.94972633039593
SMP Negeri 60 & SMK PGRI 34 Jakarta,-6.170662106204388,106.80991973971469
SD SMP SMA SMK Wijayakusuma,-6.135023005690992,106.79691019448443
MI Al Muawanatul Khaeriyah,-6.151154568085298,106.80245596474917
SD Negeri Duri Pulo 07,-6.1628827658897185,106.80879382758975
SMP-SMA-SMK Diponegoro 2,-6.179716355212303,106.94780416609832
SD Negeri Cakung Timur 05 Pagi,-6.165107564601592,106.96310577297878
SD Negeri Pulogadung 09 Pagi dan 10 Petang,-6.181383381799842,106.89592153088516
SD Negeri Pulogadung 07 Pagi dan 08 Petang,-6.1811689634388065,106.89571796238636
SD Negeri 09 & 10 Pagi,-6.253230101234285,106.86778057301031
Yayasan Pendidikan Nasional Budi Utomo,-6.255273950045992,106.86865137397068
SMP Negeri 111 Jakarta,-6.191812639703515,106.78336807027063
SMA Negeri 78 Jakarta,-6.191792858122033,106.78283490724742
Yayasan Pendidikan Islam Al Hilal Cakung,-6.185444272753147,106.9574700592299
SMP Negeri 256 Jakarta,-6.181685457060711,106.95748848615548
MA Negeri 8 Jakarta,-6.182951428681793,106.95742245863788
SD Negeri Cakung Timur 01 Pagi,-6.185458571906984,106.95417730464183
"MI, MTs Amiroh",-6.183525603990377,106.95309101438313
MI Tarbiyatul Athfal (Yapita),-6.164281352216007,106.94856282268283
SMA Negeri 102 Jakarta,-6.167293950889305,106.9507451608526
SMP Negeri 262 Jakarta,-6.166734349319695,106.95083611282328
MI Assa'adah,-6.163203100000007,106.96434569999998
SMP Kartini III,-6.206547175578002,106.88390427972902
SD Negeri Cakung Timur 02 Pagi,-6.164944995878666,106.96351923672158
Yayasan Masjid Meranti,-6.169857783700003,106.8494353794833
SD Negeri Kebon Kacang 05 Pagi,-6.1874976308573775,106.82211913055353
Yayasan Pendidikan Said Naum,-6.1912875910207505,106.81742707414895
Yayasan Pendidikan SMP dan SMK Al Ihsan,-6.192237479668409,106.81902451785369
SD Nirwana,-6.19132455,106.8117575
Yayasan Nurul Wihdah,-6.149231800000001,106.80654285000001
Yayasan Bina Karya,-6.149523250266256,106.80715945134588
Sekolah Sinar Dharma (TK-SD-SMP-SMA),-6.14927105,106.80705069999999
SDN Palmerah 17 Pagi,-6.204016501791995,106.78432616432359
MA Negeri 22 Jakarta,-6.198194999926397,106.79078046646758
SD Negeri Palmerah 09 Pagi,-6.207573097458275,106.7883475856005
SMK Negeri 13 Jakarta,-6.203021582571489,106.78576323368183
SD Negeri 19 & 20 Pagi,-6.203191334008708,106.78489669480741
SDN Palmerah 21 dan 22 Pagi,-6.203519218991002,106.78469665625045
SD Negeri Palmerah 15 Pagi,-6.203620326868386,106.7842787108949
SMP Negeri 47 Jakarta,-6.183177012651957,106.87215322095413
SD Negeri Cempaka Putih Timur 01 Pagi,-6.182699958540112,106.87232888460242
Sekolah Notre Dame - Yayasan Santa Maria,-6.187229691226934,106.7426795794946
TK-SD-SMP-SMA Permata Bunda,-6.15726755,106.80668
Tarsius I School,-6.164734350213763,106.81635499572545
SMK Rex Mundi,-6.164416734138588,106.81597100523037
"SD Negeri 01 Pagi, 02 Petang, 03 Pagi",-6.287419655474353,106.87400020148135
SMP Negeri 24 Jakarta,-6.292402619072135,106.87630360924352
Yayasan Al Falah Al Anshoriyah MI/MTs/SMK,-6.2929681984104135,106.87693746230455
Sekolah Kasih Bunda,-6.160928806469432,106.75549007390782
Yayasan Islam Wathoniyah 10 MI dan MTs,-6.187137499999999,106.93554189999998
Yayasan Regina Pacis,-6.201387363323506,106.79681102627376
SD Negeri Palmerah 23,-6.202435894865616,106.7866840342105
SMK (SMIP) Teladan,-6.19923380600067,106.79582870768557
SD Negeri Palmerah 07 Pagi,-6.205712331519734,106.7961905937197
SMA Negeri 16 Jakarta,-6.201628521860758,106.7921252963322
SD Negeri 25 Pagi,-6.201540848167684,106.79153505295169
MTS dan SMK Al-Mafatih,-6.19825607929505,106.79104692640529
SD Juara Jakarta Barat,-6.203660536328293,106.78942534395469
